,name,address,district,street,cate1,phone,x,y,카카오 평점,카카오 리뷰,카카오 URL,네이버 평점,네이버 리뷰,네이버 URL,구글 평점,구글 리뷰,구글 URL,lon,lat
0,청정바다횟집,부산광역시 강서구 대저1동 1305-3번지,강서구,대저1동,회집,051 514 1209,379071.6909,192689.619,4.7,2,https://place.map.kakao.com/2076408279#review,4.29,36,https://m.place.naver.com/share?id=1600936019&tabsPath=%2Fhome&appMode=detail,,,,128.9646043575921,35.21750292674957
1,후니스시,부산광역시 강서구 대저2동 3150-6번지 104호,강서구,대저2동,일식,519618285,378105.2758,186960.5548,3.7,8,https://place.map.kakao.com/410929293#review,4.43,163,https://m.place.naver.com/share?id=38259329&tabsPath=%2Fhome&appMode=detail,,,,128.95275949340902,35.16606601027039
2,어장횟집,부산광역시 강서구 대항동 235번지 1층,강서구,대항동,회집,,366722.3808,169570.3675,,,,,,,,,,128.8243861275813,35.0113475159871
3,반야호횟집,부산광역시 강서구 대항동 272번지,강서구,대항동,회집,051 971 7106,366750.8182,169741.3505,3.7,2,https://place.map.kakao.com/529871192#review,3.82,31,https://m.place.naver.com/share?id=84665638&tabsPath=%2Fhome&appMode=detail,3.8,리뷰 10개,https://goo.gl/maps/AuoSen3c56cJcwzQ6,128.8247317706934,35.01288324631387
4,일용횟집,부산광역시 강서구 명지동 1-377,강서구,명지동,횟집,051271 2309,376034.0496,181003.8454,0.0,0,https://place.map.kakao.com/10740468#review,,,,4.5,리뷰 2개,https://goo.gl/maps/KVyijW7rxGa3jA239,128.9287702895566,35.11276983124177
5,지중해횟집,부산광역시 강서구 명지동 1-380,강서구,명지동,횟집,051 2713088,375973.8772,181010.9472,0.0,0,https://place.map.kakao.com/8531555#review,4.39,33,https://m.place.naver.com/share?id=38681535&tabsPath=%2Fhome&appMode=detail,,,,128.92811212249094,35.11284431289293
6,사상횟집,부산광역시 강서구 명지동 1-383,강서구,명지동,횟집,051 271 1929,375992.4212,180958.5203,0.0,0,https://place.map.kakao.com/9808368#review,,,,4.5,리뷰 4개,https://goo.gl/maps/ohx8xoWEAr6VGaqKA,128.92830428428758,35.11236878851409
7,한바다횟집,부산광역시 강서구 명지동 1-446,강서구,명지동,횟집,051 2712594,375984.9905,181026.7355,4.0,3,https://place.map.kakao.com/8628604#review,4.54,94,https://m.place.naver.com/share?id=16663928&tabsPath=%2Fhome&appMode=detail,4.2,리뷰 84개,https://goo.gl/maps/tnFQEkHjVeDpCCiW7,128.92823731287672,35.112984601713386
8,부산명지맛집 조개일번가,부산광역시 강서구 명지동 1532-14번지 1층 일부,강서구,명지동,회집,051 271 1110,375816.1826,179740.7397,2.0,2,https://place.map.kakao.com/633500266#review,4.42,135,https://m.place.naver.com/share?id=1332183283&tabsPath=%2Fhome&appMode=detail,,,,128.9261137876436,35.10142914957411
9,강서횟집,부산광역시 강서구 명지동 1-561,강서구,명지동,횟집,051 271 3464,375983.468,180985.1612,5.0,1,https://place.map.kakao.com/8699457#review,,,,,,,128.92821178948807,35.112610345766264
10,세종횟집,부산광역시 강서구 명지동 1-562,강서구,명지동,횟집,051 271 0781,375982.4479,180978.9996,0.0,0,https://place.map.kakao.com/27430813#review,4.2,27,https://m.place.naver.com/share?id=625723846&tabsPath=%2Fhome&appMode=detail,,,,128.92819929710942,35.11255501711409
11,세산초장,부산광역시 강서구 명지동 1-618,강서구,명지동,횟집,,376058.8615,180984.081,0.0,0,https://place.map.kakao.com/1318940850#review,,,,,,,128.92903810413688,35.112587451090235
12,부광횟집,부산광역시 강서구 명지동 1-661,강서구,명지동,횟집,051 271 0670,376096.1354,181022.9852,5.0,3,https://place.map.kakao.com/12355748#review,4.11,19,https://m.place.naver.com/share?id=16665394&tabsPath=%2Fhome&appMode=detail,,,,128.92945501033842,35.11293140888611
13,금호횟집,부산광역시 강서구 명지동 3207-1번지,강서구,명지동,회집,051 2712221,376105.8545,180665.7934,4.2,4,https://place.map.kakao.com/8802507#review,4.61,61,https://m.place.naver.com/share?id=13583087&tabsPath=%2Fhome&appMode=detail,4.2,리뷰 75개,https://goo.gl/maps/eYbG9xzWueyipMjf6,128.92948563291384,35.10971195357688
14,도찌,부산광역시 강서구 명지동 3230-11번지 영어도시 퀸덤1차 상가(116)동 121호,강서구,명지동,일식,051 293 7999,373016.9812,178139.4072,0.0,0,https://place.map.kakao.com/898548672#review,4.76,60,https://m.place.naver.com/share?id=1100291759&tabsPath=%2Fhome&appMode=detail,,,,128.89509556725636,35.08748732933648
15,야나기야,부산광역시 강서구 명지동 3231번지 영어도시퀸덤1차 링컨 타운 상가동 222호,강서구,명지동,일식,051 202 9654,373002.1416,177917.6231,,,,,,,,,,128.89488666862604,35.08549188587188
16,담락참치일잔 명지점,부산광역시 강서구 명지동 3237-10 104호,강서구,명지동,일식,051 292 3710,373514.4825,177340.0475,5.0,4,https://place.map.kakao.com/2006357869#review,,,,4.2,리뷰 50개,https://goo.gl/maps/aWyN9R9kvAybTHro9,128.90038093700994,35.0802007277539
17,쿠우쿠우 명지오션시티점,부산광역시 강서구 명지동 3238,강서구,명지동,일식,051 205 6274,373495.7945,177766.2244,,,,,,,3.9,리뷰 413개,https://goo.gl/maps/8xPxP6NYrt4R1swy9,128.90026525938418,35.08404323361304
18,꽃마름,부산광역시 강서구 명지동 3238번지,강서구,명지동,일식,,373495.7945,177766.2244,1.5,7,https://place.map.kakao.com/17781819#review,,,,3.7,리뷰 74개,https://goo.gl/maps/A6nnJV2kPkKTjg5BA,128.90026525938418,35.08404323361304
19,손정순찜닭,부산광역시 강서구 명지동 3239-14번지 광명빌딩 105호,강서구,명지동,일식,051 2063573,373592.2668,177702.0837,5.0,2,https://place.map.kakao.com/635526522#review,4.76,58,https://m.place.naver.com/share?id=649324518&tabsPath=%2Fhome&appMode=detail,4.4,리뷰 15개,https://goo.gl/maps/jEBNzA6xhbkgrCsM7,128.90130911863952,35.08344882119848
20,우럭만,부산광역시 강서구 명지동 3239-6 명지롯데프라자 103호,강서구,명지동,횟집,051 271 7071,373569.291,177601.3609,1.0,3,https://place.map.kakao.com/1565130826#review,,,,,,,128.90103624583438,35.08254539351697
21,횟뜰날,부산광역시 강서구 명지동 3239-7 서린프라자 105호,강서구,명지동,횟집,051 206 4353,373570.2222,177568.3913,4.0,0,https://place.map.kakao.com/27468701#review,,,,,,,128.90103955337406,35.082248220788536
22,모토이시,부산광역시 강서구 명지동 3240 세정프라자 108호,강서구,명지동,일식,070 77642929,373571.4809,177507.6088,4.0,10,https://place.map.kakao.com/1115468918#review,,,,,,,128.901040631344,35.08170043417983
23,팔딱팔딱횟집,부산광역시 강서구 명지동 3248-5 1층,강서구,명지동,횟집,051 271 8553,374202.1179,178227.57,3.8,6,https://place.map.kakao.com/1159874883#review,4.46,34,https://m.place.naver.com/share?id=1353840887&tabsPath=%2Fhome&appMode=detail,4.2,리뷰 12개,https://goo.gl/maps/iVd2EqLTqpMN96cL8,128.90810302614543,35.08807765511139
24,히토,부산광역시 강서구 명지동 3257-10번지 101호,강서구,명지동,일식,,374147.4881,178039.0613,3.0,4,https://place.map.kakao.com/27266508#review,4.35,20,https://m.place.naver.com/share?id=37276068&tabsPath=%2Fhome&appMode=detail,4.4,리뷰 34개,https://goo.gl/maps/m6p2pukkSzAKWvHLA,128.90746470863857,35.08638887805733
25,더스시투어,부산광역시 강서구 명지동 3259-1,강서구,명지동,일식,051 2011112,374182.9747,177999.6889,,,,,,,4.0,리뷰 1개,https://goo.gl/maps/dP8W91NmNRaqu3Qu8,128.90784536311136,35.08602806160587
26,(주)태릉,부산광역시 강서구 명지동 3260-16번지,강서구,명지동,일식,,374119.9429,177942.7671,,,,,,,,,,128.90714260814357,35.085526151240586
27,만텐스시,부산광역시 강서구 명지동 3260-1번지,강서구,명지동,일식,,374082.4001,177958.0316,0.0,5,https://place.map.kakao.com/2067511395#review,4.6,108,https://m.place.naver.com/share?id=1541416774&tabsPath=%2Fhome&appMode=detail,,,,128.90673435807204,35.0856701407297
28,강창호물회(대어횟집),부산광역시 강서구 명지동 3261-15,강서구,명지동,횟집,051 271 3238,374227.3222,177890.8102,,,,,,,,,,128.90830852729584,35.08503955718652
29,디에이치푸드,부산광역시 강서구 명지동 3267-3,강서구,명지동,일식,051 205 1765,374110.7685,177836.776,0.0,0,https://place.map.kakao.com/296196043#review,,,,,,,128.9070198137934,35.084572897996296
30,토모니라멘,부산광역시 강서구 명지동 3325 스위트팰리스 상가동 116호,강서구,명지동,일식,,375031.5495,180581.9411,2.5,5,https://place.map.kakao.com/2099459445#review,4.18,41,https://m.place.naver.com/share?id=1085913616&tabsPath=%2Fhome&appMode=detail,,,,128.91769060529157,35.10914363809871
31,스시에비뉴,부산광역시 강서구 명지동 3328 명지 협성휴포레 303동 302호,강서구,명지동,일식,,375000.3849,180279.6001,0.0,0,https://place.map.kakao.com/2057218898#review,,,,,,,128.91728510304884,35.10642539166711
32,오풍미족발,부산광역시 강서구 명지동 3331-5 운정D1타워 101호,강서구,명지동,일식,,375181.6108,180096.7371,,,,,,,,,,128.91923310042844,35.10474659355831
33,명지대게.킹크랩,부산광역시 강서구 명지동 3334-1 1동 1층 일부호,강서구,명지동,횟집,051 291 2912,375372.1339,180077.7646,0.0,5,https://place.map.kakao.com/905142763#review,,,,,,,128.92131761301297,35.104542563936235
34,명지갯벌횟집,부산광역시 강서구 명지동 3334-10 1층,강서구,명지동,횟집,051 271 6066,375552.0443,180058.7256,0.0,0,https://place.map.kakao.com/1591389100#review,4.48,49,https://m.place.naver.com/share?id=1029126712&tabsPath=%2Fhome&appMode=detail,,,,128.9232857630368,35.10433974724386
35,본초밥,부산광역시 강서구 명지동 3358-3번지 3층 301호,강서구,명지동,일식,051 271 7765,375111.4189,179376.0121,1.5,24,https://place.map.kakao.com/354953081#review,4.54,56,https://m.place.naver.com/share?id=1876105746&tabsPath=%2Fhome&appMode=detail,,,,128.91831138366365,35.098266089993594
36,만타스시31 명지점,부산광역시 강서구 명지동 3358-4,강서구,명지동,일식,,375139.3969,179373.2791,5.0,0,https://place.map.kakao.com/1907162203#review,4.56,25,https://m.place.naver.com/share?id=1291026515&tabsPath=%2Fhome&appMode=detail,,,,128.9186174791572,35.09823661205131
37,영광수산회센터,부산광역시 강서구 명지동 3368-1 1층,강서구,명지동,횟집,051 271 8885,375403.793,179978.0726,5.0,21,https://place.map.kakao.com/1314121537#review,4.19,239,https://m.place.naver.com/share?id=1918789380&tabsPath=%2Fhome&appMode=detail,,,,128.9216435614746,35.10363897848231
38,카츠박스,부산광역시 강서구 명지동 3412-4 107호,강서구,명지동,일식,,374899.7168,179322.521,5.0,6,https://place.map.kakao.com/1589353390#review,4.6,62,https://m.place.naver.com/share?id=1797639213&tabsPath=%2Fhome&appMode=detail,,,,128.91597958342652,35.097820941808216
39,미소야 부산명지국제신도시점,부산광역시 강서구 명지동 3420-2 102호,강서구,명지동,일식,051 208 2323,375052.9431,179304.9181,0.0,4,https://place.map.kakao.com/65808684#review,,,,,,,128.91765540519913,35.09763578481172
40,키친료쿠산,부산광역시 강서구 명지동 3420-6번지 110호,강서구,명지동,일식,,375164.6135,179293.4238,0.0,2,https://place.map.kakao.com/1708308246#review,4.7,35,https://m.place.naver.com/share?id=965631871&tabsPath=%2Fhome&appMode=detail,3.6,리뷰 9개,https://goo.gl/maps/CiG1L2M49G8zhXav6,128.91887701049214,35.09751285177411
41,갓텐스시 스타필드시티명지점,부산광역시 강서구 명지동 3438번지 스타필드 시티 명지점 1111호,강서구,명지동,일식,,374851.6951,178805.7536,4.2,21,https://place.map.kakao.com/258626834#review,4.5,602,https://m.place.naver.com/share?id=1028163749&tabsPath=%2Fhome&appMode=detail,2.5,리뷰 2개,https://goo.gl/maps/GbyGviF4QUBYtnYB6,128.91534422601282,35.09317392419576
42,숯불꼬치33&오뎅바,부산광역시 강서구 명지동 3440-1번지 101호,강서구,명지동,일식,,375298.5641,179278.9772,0.0,1,https://place.map.kakao.com/1619082734#review,4.29,34,https://m.place.naver.com/share?id=1411940323&tabsPath=%2Fhome&appMode=detail,,,,128.92034220248203,35.097359438836826
43,참치화,부산광역시 강서구 명지동 3440-2 108호,강서구,명지동,일식,051 293 8989,375322.8564,179276.5758,0.0,2,https://place.map.kakao.com/1008869628#review,4.7,45,https://m.place.naver.com/share?id=1269715161&tabsPath=%2Fhome&appMode=detail,,,,128.92060796451037,35.09733358374629
44,원카츠 명지점,부산광역시 강서구 명지동 3440-5 디엔씨빌딩 107호,강서구,명지동,일식,,375397.6412,179270.218,5.0,49,https://place.map.kakao.com/1180481466#review,4.63,182,https://m.place.naver.com/share?id=1250506369&tabsPath=%2Fhome&appMode=detail,4.5,리뷰 25개,https://goo.gl/maps/GAbTArXBnJWGf2oW6,128.92142634110684,35.097263308096274
45,조방낙지,부산광역시 강서구 명지동 3440-7 108호,강서구,명지동,일식,,375447.4058,179264.9937,2.8,4,https://place.map.kakao.com/1925383238#review,,,,3.3,리뷰 3개,https://goo.gl/maps/4uG5mrUP5CBNnG887,128.92197070827464,35.09720759028082
46,청춘참치,부산광역시 강서구 명지동 3444-2번지,강서구,명지동,일식,,375317.8128,179212.1489,4.0,7,https://place.map.kakao.com/2013881779#review,4.45,55,https://m.place.naver.com/share?id=1396359906&tabsPath=%2Fhome&appMode=detail,,,,128.92053905671955,35.096754067047435
47,풍어수산,부산광역시 강서구 명지동 3444-3,강서구,명지동,횟집,051 271 1888,375315.7735,179192.7531,,,,,,,,,,128.9205126024024,35.0965796933202
48,한라횟집,부산광역시 강서구 명지동 3444-9번지 1층,강서구,명지동,회집,051 206 0888,375329.7749,179210.8932,0.0,4,https://place.map.kakao.com/870629151#review,4.44,115,https://m.place.naver.com/share?id=1003660523&tabsPath=%2Fhome&appMode=detail,4.0,리뷰 1개,https://goo.gl/maps/xFmVSG9iJSfBmLs28,128.9206699077352,35.0967406759096
49,주인의주방,부산광역시 강서구 명지동 3448-3번지,강서구,명지동,일식,,375385.6087,179185.4037,3.5,62,https://place.map.kakao.com/2048974879#review,,,,,,,128.92127650945162,35.096501346247415
50,조개구이캠핑섬,부산광역시 강서구 명지동 3453-1 4층,강서구,명지동,횟집,051 206 8882,375280.8052,179122.6336,0.0,29,https://place.map.kakao.com/2076704206#review,4.67,197,https://m.place.naver.com/share?id=1888432543&tabsPath=%2Fhome&appMode=detail,4.1,리뷰 40개,https://goo.gl/maps/xcibpGd9YQZnGJfw8,128.92011449097535,35.095954094472994
51,제주바당,부산광역시 강서구 명지동 3453-4번지 102호,강서구,명지동,회집,051 202 8854,375273.9436,179060.1501,,,,4.5,132,https://m.place.naver.com/share?id=1029392962&tabsPath=%2Fhome&appMode=detail,3.9,리뷰 35개,https://goo.gl/maps/ZLDLEGTGNTEzmS9v8,128.92002607236188,35.09539240033193
52,스시만드는주방,부산광역시 강서구 명지동 3455-4 102호,강서구,명지동,일식,051 275 8615,375353.2174,179115.3051,0.0,8,https://place.map.kakao.com/904429165#review,,,,3.7,리뷰 3개,https://goo.gl/maps/JmC4nKAK7YVzwwgh7,128.9209066433244,35.09587549039941
53,키친어썸,부산광역시 강서구 명지동 3461-12번지 1층,강서구,명지동,일식,051 207 5321,375406.3556,179064.6339,5.0,16,https://place.map.kakao.com/527168608#review,4.48,83,https://m.place.naver.com/share?id=1610050455&tabsPath=%2Fhome&appMode=detail,4.7,리뷰 3개,https://goo.gl/maps/GDA2EAAE3zpFhHBq6,128.92147836442788,35.09540977778908
54,총각도매횟집,부산광역시 강서구 명지동 3488-2,강서구,명지동,횟집,,375125.45,180303.1673,0.0,1,https://place.map.kakao.com/616241545#review,4.29,17,https://m.place.naver.com/share?id=1474809949&tabsPath=%2Fhome&appMode=detail,,,,128.91866108610188,35.10661598543776
55,빠뎅,부산광역시 강서구 명지동 3492-6 1층 일부,강서구,명지동,일식,,375227.524,180275.2377,0.0,0,https://place.map.kakao.com/1753097761#review,,,,,,,128.91977414870593,35.10634664766703
56,류센소(명지점),부산광역시 강서구 명지동 3493-1,강서구,명지동,일식,051 911 0635,375268.8933,180324.1168,4.3,24,https://place.map.kakao.com/1444534603#review,4.62,195,https://m.place.naver.com/share?id=1482427068&tabsPath=%2Fhome&appMode=detail,4.3,리뷰 24개,https://goo.gl/maps/rr6x5A1eCkZK1scD6,128.92023798939005,35.106779787433915
57,케이튜나(K-TUNA),부산광역시 강서구 명지동 3502-1 1층 일부,강서구,명지동,일식,,375114.4662,180200.3127,0.0,10,https://place.map.kakao.com/173697346#review,4.48,31,https://m.place.naver.com/share?id=1716405546&tabsPath=%2Fhome&appMode=detail,,,,128.918518942614,35.1056913218924
58,독도어부,부산광역시 강서구 명지동 3504-4 1층,강서구,명지동,횟집,,375189.523,180149.6894,0.0,0,https://place.map.kakao.com/1440565023#review,4.28,18,https://m.place.naver.com/share?id=1223362173&tabsPath=%2Fhome&appMode=detail,4.0,리뷰 3개,https://goo.gl/maps/rFcF6kjzzCCWm1Bm8,128.91933102870627,35.10522224249549
59,오케이도매횟집,부산광역시 강서구 명지동 3506-2 1층,강서구,명지동,횟집,051 207 7737,375232.0809,180182.6024,5.0,1,https://place.map.kakao.com/1760232844#review,4.7,30,https://m.place.naver.com/share?id=1429906467&tabsPath=%2Fhome&appMode=detail,,,,128.91980451397905,35.10551134641166
60,란!빛나다,부산광역시 강서구 명지동 3509-1번지 1층,강서구,명지동,일식,,375296.8374,180177.0225,0.0,3,https://place.map.kakao.com/2088690864#review,4.52,121,https://m.place.naver.com/share?id=1505177856&tabsPath=%2Fhome&appMode=detail,,,,128.92051320567057,35.10544982469652
61,욕지도횟집,부산광역시 강서구 명지동 3509-7,강서구,명지동,횟집,051 208 1884,375311.5896,180159.5151,0.0,2,https://place.map.kakao.com/177872367#review,4.56,112,https://m.place.naver.com/share?id=1733820366&tabsPath=%2Fhome&appMode=detail,4.3,리뷰 3개,https://goo.gl/maps/na9FGXbi9TmCH41h9,128.9206712179877,35.10528954397078
62,소복회,부산광역시 강서구 명지동 3510-8번지 1층 일부,강서구,명지동,일식,,375290.8145,180118.8697,3.0,13,https://place.map.kakao.com/942476547#review,4.6,190,https://m.place.naver.com/share?id=1083341286&tabsPath=%2Fhome&appMode=detail,3.8,리뷰 5개,https://goo.gl/maps/4ZizZpRuEtzv82Xh8,128.9204348809084,35.104926999617504
63,이어도,부산광역시 강서구 명지동 3515-6번지 1층 일부,강서구,명지동,횟집,051 292 1149,375401.2295,180104.7287,5.0,6,https://place.map.kakao.com/158121947#review,4.31,18,https://m.place.naver.com/share?id=1901531046&tabsPath=%2Fhome&appMode=detail,,,,128.92164226705054,35.10478041078738
64,에바돈가츠 명지서부지법점,부산광역시 강서구 명지동 3594 더샵 명지퍼스트월드 2단지 104호,강서구,명지동,일식,,373753.9875,179343.1529,3.4,3,https://place.map.kakao.com/1453159511#review,4.46,226,https://m.place.naver.com/share?id=1521163458&tabsPath=%2Fhome&appMode=detail,,,,128.9034253101054,35.09820481921268
65,요이참치,부산광역시 강서구 명지동 3594 더샵 명지퍼스트월드 2단지 판매시설동 1층 227호,강서구,명지동,일식,,373753.9875,179343.1529,0.0,2,https://place.map.kakao.com/191812970#review,4.49,36,https://m.place.naver.com/share?id=1165136072&tabsPath=%2Fhome&appMode=detail,,,,128.9034253101054,35.09820481921268
66,대게랑스시랑,부산광역시 강서구 명지동 3597-5 113호 일부,강서구,명지동,횟집,,373808.7564,178891.0303,0.0,0,https://place.map.kakao.com/1832114209#review,,,,,,,128.90393086414042,35.094122371588114
67,술시,부산광역시 강서구 명지동 3598-4 제이티프라자,강서구,명지동,일식,,373739.3726,178830.0192,,,,,,,,,,128.90315758110506,35.09358469546962
68,시로이돈까스부산명지점,부산광역시 강서구 명지동 3599-1 e편한세상 명지,강서구,명지동,일식,051 292 1521,374032.1287,179398.7823,4.7,2,https://place.map.kakao.com/2131214088#review,4.58,129,https://m.place.naver.com/share?id=1149016115&tabsPath=%2Fhome&appMode=detail,4.5,리뷰 31개,https://goo.gl/maps/YWQrzRCjAKZy1CgR8,128.90648577539807,35.09865801283699
69,쿄우노식당,부산광역시 강서구 명지동 3599-1 e편한세상 명지,강서구,명지동,일식,,374032.1287,179398.7823,,,,,,,2.0,리뷰 1개,https://goo.gl/maps/7TKcxfriQpcyuAJS9,128.90648577539807,35.09865801283699
70,라무진(명지국제신도시점),부산광역시 강서구 명지동 3599-1 e편한세상 명지 1-47호,강서구,명지동,일식,,374032.1287,179398.7823,0.0,2,https://place.map.kakao.com/141766360#review,4.43,53,https://m.place.naver.com/share?id=1160154071&tabsPath=%2Fhome&appMode=detail,5.0,리뷰 1개,https://goo.gl/maps/t8dFvVYYKCdpqwH26,128.90648577539807,35.09865801283699
71,호호야,부산광역시 강서구 명지동 3599-1 e편한세상 명지 1-58호,강서구,명지동,일식,051 710 9077,374032.1287,179398.7823,,,,,,,,,,128.90648577539807,35.09865801283699
72,마마초밥 명지법원점,부산광역시 강서구 명지동 3599-1 e편한세상 명지 비주거시설동 1-59호,강서구,명지동,일식,,374032.1287,179398.7823,0.0,0,https://place.map.kakao.com/115688825#review,4.23,28,https://m.place.naver.com/share?id=1891991089&tabsPath=%2Fhome&appMode=detail,,,,128.90648577539807,35.09865801283699
73,쿡스시,부산광역시 강서구 명지동 3603-2 116호,강서구,명지동,일식,,373925.112,178813.8611,0.0,0,https://place.map.kakao.com/1937641660#review,,,,,,,128.90519002178618,35.0934071285091
74,대라참치,부산광역시 강서구 신호동 215-3,강서구,신호동,횟집,051 972 1666,371253.3659,178073.259,5.0,5,https://place.map.kakao.com/1792150225#review,4.91,52,https://m.place.naver.com/share?id=1797285544&tabsPath=%2Fhome&appMode=detail,,,,128.8757526777799,35.087192266506506
75,야타이,부산광역시 강서구 신호동 217 신호프라자 109호,강서구,신호동,일식,,371180.376,177972.6751,0.0,0,https://place.map.kakao.com/194467416#review,4.73,13,https://m.place.naver.com/share?id=1460157232&tabsPath=%2Fhome&appMode=detail,,,,128.87493194952327,35.086298509980445
76,홍가참치,부산광역시 강서구 신호동 219-1,강서구,신호동,일식,051 971 3782,371194.1817,177820.9474,0.0,1,https://place.map.kakao.com/1997426071#review,4.96,13,https://m.place.naver.com/share?id=1464783949&tabsPath=%2Fhome&appMode=detail,,,,128.87505194450333,35.08492928187258
77,바다향기,부산광역시 강서구 신호동 219-14,강서구,신호동,횟집,051 971 0540,371194.6532,177795.9414,0.0,1,https://place.map.kakao.com/1666107553#review,,,,,,,128.87505195138553,35.084703927541646
78,초밥잘하는오빠,부산광역시 강서구 신호동 237-4번지 102호,강서구,신호동,일식,051 832 5858,371177.4484,177578.9217,4.6,9,https://place.map.kakao.com/5569413#review,4.66,239,https://m.place.naver.com/share?id=1995505476&tabsPath=%2Fhome&appMode=detail,4.5,리뷰 61개,https://goo.gl/maps/TaTtgERgnGQtDJqx9,128.87481861171193,35.08275175578702
79,우럭&갈비탕,부산광역시 강서구 신호동 242-13번지,강서구,신호동,회집,,371359.13,177631.8163,4.0,4,https://place.map.kakao.com/1878076540#review,,,,4.3,리뷰 3개,https://goo.gl/maps/f7yGSZqNznpLLjE2A,128.87682066040222,35.08319744169629
80,와이제이,부산광역시 강서구 신호동 242-9 1층 일부,강서구,신호동,일식,051 832 1205,371360.518,177575.1466,0.0,0,https://place.map.kakao.com/286015791#review,,,,,,,128.8768241666661,35.082686679727416
81,마라도 물회,부산광역시 강서구 신호동 263-3번지,강서구,신호동,회집,,371308.822,177297.636,3.6,21,https://place.map.kakao.com/26835258#review,4.43,287,https://m.place.naver.com/share?id=36787464&tabsPath=%2Fhome&appMode=detail,4.1,리뷰 298개,https://goo.gl/maps/XoENW7qYcWz1ySR37,128.87620030957785,35.08019541542928
82,동해초장,부산광역시 강서구 신호동 317-18 2층,강서구,신호동,횟집,051 831 0004,370683.0615,177527.438,0.0,1,https://place.map.kakao.com/328491540#review,4.4,152,https://m.place.naver.com/share?id=1610205715&tabsPath=%2Fhome&appMode=detail,3.0,리뷰 1개,https://goo.gl/maps/xqNuHN57L3XSDzkg9,128.8693898158393,35.08237167889986
83,동경식당,부산광역시 강서구 신호동 317-24,강서구,신호동,일식,051 831 7972,370580.9773,177594.2328,4.5,10,https://place.map.kakao.com/1359313968#review,4.32,141,https://m.place.naver.com/share?id=1555321300&tabsPath=%2Fhome&appMode=detail,3.9,리뷰 74개,https://goo.gl/maps/Emx2rrwTJVzhvQy28,128.86828476761806,35.08299068226916
84,뚠뚜니횟집,부산광역시 강서구 신호동 318-2 의창수협 어선수리소,강서구,신호동,횟집,051 247 0014,370685.2369,177719.9171,0.0,0,https://place.map.kakao.com/804719742#review,,,,,,,128.86945325858335,35.08410532500454
85,회바라기,부산광역시 강서구 신호동 318-2 의창수협 어선수리소,강서구,신호동,횟집,,370685.2369,177719.9171,,,,,,,,,,128.86945325858335,35.08410532500454
86,물회세상,부산광역시 강서구 신호동 320-7번지,강서구,신호동,회집,051 831 6388,370656.7039,177904.9156,5.0,1,https://place.map.kakao.com/12566108#review,4.41,104,https://m.place.naver.com/share?id=16675305&tabsPath=%2Fhome&appMode=detail,3.9,리뷰 60개,https://goo.gl/maps/2fCwPnAuhv5Z5LbW6,128.86917860674862,35.08577677263736
87,황금어장,부산광역시 강서구 지사동 1191-12번지,강서구,지사동,일식,051 971 2369,367055.2862,184909.8553,1.0,2,https://place.map.kakao.com/1003756631#review,4.57,61,https://m.place.naver.com/share?id=1438194900&tabsPath=%2Fhome&appMode=detail,4.0,리뷰 10개,https://goo.gl/maps/zSNvEb3y5goXRvq59,128.8311199918681,35.14948682947383
88,해운대,부산광역시 강서구 지사동 1195-2 1층,강서구,지사동,횟집,051 852 2089,366868.4292,185013.6625,5.0,4,https://place.map.kakao.com/1525703495#review,,,,4.6,리뷰 7개,https://goo.gl/maps/jycWwVCvRD2CWyks5,128.8290913742657,35.150453011665256
89,어부횟집,부산광역시 강서구 천성동 1367-1번지,강서구,천성동,회집,,365296.3649,172132.9848,0.0,1,https://place.map.kakao.com/24122043#review,,,,4.0,리뷰 23개,https://goo.gl/maps/TeE7kqZk2YW6pAH57,128.80927997423666,35.03466869617759
90,연대봉포차식당,부산광역시 강서구 천성동 496번지,강서구,천성동,일식,051 972 1171,365598.2399,171111.9806,0.0,0,https://place.map.kakao.com/757123537#review,,,,,,,128.81238325422626,35.0254208540559
91,가덕도1번지쌈밥,부산광역시 강서구 천성동 585,강서구,천성동,횟집,051 9719327,365640.5572,171239.1621,1.0,6,https://place.map.kakao.com/2018983301#review,3.88,34,https://m.place.naver.com/share?id=1619716444&tabsPath=%2Fhome&appMode=detail,3.8,리뷰 100개,https://goo.gl/maps/ydMEZQy8a34EQ9Pz6,128.81287204166514,35.026559729886486
92,가덕도천성항포차,부산광역시 강서구 천성동 592,강서구,천성동,횟집,,365640.887,171268.1073,0.0,0,https://place.map.kakao.com/1365822624#review,,,,,,,128.8128814170205,35.02682044938501
93,카페아리,부산광역시 강서구 천성동 642번지,강서구,천성동,회집,051 970 0077,365647.2346,171404.4488,0.0,0,https://place.map.kakao.com/865568610#review,4.25,18,https://m.place.naver.com/share?id=1003044155&tabsPath=%2Fhome&appMode=detail,,,,128.8129780870676,35.02804773932106
94,천성중앙초장집,부산광역시 강서구 천성동 647번지,강서구,천성동,회집,051 972 8686,365635.2436,171449.2767,0.0,0,https://place.map.kakao.com/1970656046#review,,,,,,,128.81285568178717,35.028453567439286
95,주화횟집,부산광역시 강서구 화전동 561-5 1층 일부,강서구,화전동,횟집,051 941 9288,371444.239,180691.3558,0.0,2,https://place.map.kakao.com/1791507878#review,4.56,24,https://m.place.naver.com/share?id=1020335900&tabsPath=%2Fhome&appMode=detail,,,,128.87838612125088,35.110745699242905
96,골목집,부산광역시 금정구 구서동 1009-13번지,금정구,구서동,회집,051 517 4166,389778.9443,197721.0931,0.0,0,https://place.map.kakao.com/15317356#review,,,,4.3,리뷰 3개,https://goo.gl/maps/8WFsSzWSZnzYz3fc6,129.08329118479685,35.260857441589074
97,류센소,부산광역시 금정구 구서동 1023-38,금정구,구서동,일식,,389679.2923,197453.3115,4.5,5,https://place.map.kakao.com/1636714067#review,4.75,160,https://m.place.naver.com/share?id=1171228435&tabsPath=%2Fhome&appMode=detail,4.2,리뷰 14개,https://g.page/ryusenso_guseo?share,129.0821350517251,35.258464276525174
98,금샘횟집,부산광역시 금정구 구서동 164-28번지,금정구,구서동,회집,051 5173134,390149.4692,197421.3151,4.0,0,https://place.map.kakao.com/16229304#review,3.97,18,https://m.place.naver.com/share?id=16652383&tabsPath=%2Fhome&appMode=detail,,,,129.08729095747728,35.25808702460203
99,수중어초횟집,부산광역시 금정구 구서동 174-2번지,금정구,구서동,회집,,390314.534,197375.4263,4.5,5,https://place.map.kakao.com/15787790#review,4.55,97,https://m.place.naver.com/share?id=19676782&tabsPath=%2Fhome&appMode=detail,4.9,리뷰 20개,https://goo.gl/maps/p2D6RsL54wcrcEy57,129.08909300634286,35.257642372735134
100,스시카요,부산광역시 금정구 구서동 177-25번지 대원빌딩,금정구,구서동,일식,070 74373048,390286.9787,197360.4695,5.0,6,https://place.map.kakao.com/2020070726#review,,,,,,,129.08878694808453,35.25751288027932
101,토코시에,부산광역시 금정구 구서동 177-25번지 대원빌딩,금정구,구서동,일식,070 74373048,390286.9787,197360.4695,5.0,0,https://place.map.kakao.com/1847552824#review,,,,,,,129.08878694808453,35.25751288027932
102,가젠스시,부산광역시 금정구 구서동 201-40번지,금정구,구서동,일식,051 513 9151,390171.9581,196912.3213,0.0,4,https://place.map.kakao.com/1606166429#review,4.49,91,https://m.place.naver.com/share?id=1184319633&tabsPath=%2Fhome&appMode=detail,4.5,리뷰 8개,https://goo.gl/maps/UJQvJpV6zXrbp7eq9,129.08742024860774,35.25349805095958
103,성덕수산,부산광역시 금정구 구서동 203-42번지,금정구,구서동,회집,051 5175796,390088.4055,196929.8228,0.0,0,https://place.map.kakao.com/16435597#review,,,,,,,129.08650680647457,35.253671533371104
104,청연,부산광역시 금정구 구서동 258-15,금정구,구서동,일식,,390050.6175,196281.55,0.0,0,https://place.map.kakao.com/446867363#review,,,,,,,129.08594211921738,35.24783943424663
105,도다리,부산광역시 금정구 구서동 258-20번지,금정구,구서동,일식,051 528 0077,390074.1955,196232.073,0.0,0,https://place.map.kakao.com/831230325#review,,,,,,,129.0861895820468,35.24738930709558
106,야마다라멘앤덮밥,부산광역시 금정구 구서동 368번지 (주)이마트금정점,금정구,구서동,일식,,390208.0926,196546.3563,5.0,5,https://place.map.kakao.com/1963663035#review,,,,,,,129.08773243374563,35.25019480529521
107,노가,부산광역시 금정구 구서동 413-11번지,금정구,구서동,회집,,390015.7301,196014.2462,2.5,2,https://place.map.kakao.com/845833901#review,4.44,48,https://m.place.naver.com/share?id=1865566147&tabsPath=%2Fhome&appMode=detail,4.6,리뷰 11개,https://goo.gl/maps/CJxGgiCDU6PjdLDNA,129.08549733097615,35.245438325234915
108,오케이 도매횟집,부산광역시 금정구 구서동 413-2번지 대보 드림채,금정구,구서동,횟집,,389979.0697,196130.9655,,,,4.6,60,https://m.place.naver.com/share?id=1539989226&tabsPath=%2Fhome&appMode=detail,,,,129.08512174819217,35.246496608458045
109,철마한우로스구이,부산광역시 금정구 구서동 414-39번지,금정구,구서동,일식,,390135.9586,196075.7048,5.0,21,https://place.map.kakao.com/1566292515#review,4.68,88,https://m.place.naver.com/share?id=1784748803&tabsPath=%2Fhome&appMode=detail,4.5,리뷰 29개,https://goo.gl/maps/eeemTbcALwkFAtaM8,129.08683162110802,35.24596912959494
110,상선회수산,부산광역시 금정구 구서동 414-50번지,금정구,구서동,회집,051 5817444,390138.2362,196026.4726,4.7,3,https://place.map.kakao.com/24313714#review,,,,,,,129.0868452548614,35.24552524306452
111,선참치,부산광역시 금정구 구서동 414-64번지,금정구,구서동,일식,051 5159588,390136.2185,196002.2838,3.0,2,https://place.map.kakao.com/25147588#review,4.56,45,https://m.place.naver.com/share?id=35306964&tabsPath=%2Fhome&appMode=detail,3.8,리뷰 27개,https://goo.gl/maps/jY11XY3sZs2ukJZaA,129.0868175125987,35.24530774688819
112,아라이수산,부산광역시 금정구 구서동 414-77,금정구,구서동,일식,051 512 7688,390135.6628,196119.3931,,,,,,,,,,129.08683846663124,35.24636270428819
113,장가네 장충왕족발,부산광역시 금정구 구서동 415-109번지,금정구,구서동,일식,,390166.1203,196117.7484,0.0,4,https://place.map.kakao.com/12636672#review,,,,3.5,리뷰 11개,https://goo.gl/maps/5crqDaThrV2GU2ER9,129.08717250918588,35.246342116770656
114,대림참치,부산광역시 금정구 구서동 415-33번지,금정구,구서동,회집,051 512 4449,390221.4419,196131.5677,2.0,37,https://place.map.kakao.com/19156168#review,4.26,21,https://m.place.naver.com/share?id=35965793&tabsPath=%2Fhome&appMode=detail,4.4,리뷰 37개,https://goo.gl/maps/jmZXXeCWo2occSoX7,129.08778313280538,35.246456104640465
115,킨타로,부산광역시 금정구 구서동 415-45번지,금정구,구서동,일식,,390161.2737,196018.2361,,,,4.42,65,https://m.place.naver.com/share?id=1378765911&tabsPath=%2Fhome&appMode=detail,,,,129.08709630036338,35.2454466870464
116,미소스시,부산광역시 금정구 구서동 420-3번지,금정구,구서동,일식,,390364.8636,195986.909,3.7,5,https://place.map.kakao.com/1122884144#review,,,,,,,129.0893244391614,35.24512590066449
117,인생정원,부산광역시 금정구 구서동 445-1,금정구,구서동,일식,,390199.7846,195926.013,,,,4.18,25,https://m.place.naver.com/share?id=1754529882&tabsPath=%2Fhome&appMode=detail,,,,129.08749783180266,35.24460869516005
118,도도횟집,부산광역시 금정구 구서동 446-17번지,금정구,구서동,일식,051 988 8934,390100.5121,195873.0265,0.0,0,https://place.map.kakao.com/1506036459#review,,,,3.2,리뷰 5개,https://goo.gl/maps/PFUvyw8S15wEUxK36,129.0863956072467,35.244150238708194
119,유메노다이닝,부산광역시 금정구 구서동 446-18번지 혜광빌딩,금정구,구서동,일식,,390159.6686,195938.3138,5.0,4,https://place.map.kakao.com/523363412#review,4.58,25,https://m.place.naver.com/share?id=1077741529&tabsPath=%2Fhome&appMode=detail,4.3,리뷰 15개,https://goo.gl/maps/6TS8jHVqR2gN2f4s8,129.08706021066465,35.24472709797494
120,대성수산해물,부산광역시 금정구 구서동 457-16번지,금정구,구서동,회집,,390116.7327,195935.6599,,,,,,,4.0,리뷰 29개,https://goo.gl/maps/8EKRBG2MXrarpfuV6,129.08658817188518,35.24471133038529
121,양미가,부산광역시 금정구 구서동 457-23번지 457-24,금정구,구서동,일식,,390049.9401,195965.5698,1.0,1,https://place.map.kakao.com/1972229907#review,4.35,24,https://m.place.naver.com/share?id=1189107719&tabsPath=%2Fhome&appMode=detail,,,,129.08586171178447,35.244993396335026
122,오늘의돈까스,부산광역시 금정구 구서동 460-3번지,금정구,구서동,일식,,389889.6565,195918.0658,0.0,1,https://place.map.kakao.com/503604035#review,4.64,22,https://m.place.naver.com/share?id=1066077232&tabsPath=%2Fhome&appMode=detail,4.5,리뷰 2개,https://goo.gl/maps/xYZ245LHpyuSsgQp8,129.08409086873812,35.24459585757593
123,408횟집,부산광역시 금정구 구서동 462-4,금정구,구서동,횟집,,389969.8136,195851.6423,0.0,4,https://place.map.kakao.com/1166415801#review,4.37,27,https://m.place.naver.com/share?id=1830925045&tabsPath=%2Fhome&appMode=detail,4.3,리뷰 7개,https://goo.gl/maps/oqPAQnqDhUTU7ykx6,129.08495564282845,35.24398237805448
124,도시횟집,부산광역시 금정구 구서동 472-24번지,금정구,구서동,회집,,389880.6777,195855.1606,5.0,2,https://place.map.kakao.com/85747933#review,4.63,62,https://m.place.naver.com/share?id=1547086969&tabsPath=%2Fhome&appMode=detail,,,,129.08397777139243,35.24403094254192
125,해도수산센터,부산광역시 금정구 구서동 809-5,금정구,구서동,횟집,051 583 6200,389950.2589,197418.2671,5.0,2,https://place.map.kakao.com/1808555916#review,4.43,36,https://m.place.naver.com/share?id=1735913717&tabsPath=%2Fhome&appMode=detail,3.7,리뷰 18개,https://goo.gl/maps/nt5cMp4m43G98HAb9,129.08510261274907,35.258097325336664
126,원 참가자미횟집,부산광역시 금정구 구서동 84-2번지,금정구,구서동,회집,051 5163148,390315.861,196117.2908,0.0,3,https://place.map.kakao.com/2097361462#review,4.5,49,https://m.place.naver.com/share?id=1259353197&tabsPath=%2Fhome&appMode=detail,,,,129.08881655086654,35.24630959916971
127,초당물회횟집,부산광역시 금정구 구서동 87-31번지,금정구,구서동,회집,,390109.3507,196201.6783,0.0,0,https://place.map.kakao.com/129425675#review,,,,,,,129.08656856874725,35.24710886780832
128,썬더치킨,부산광역시 금정구 금사동 386-5번지,금정구,금사동,횟집,051 522 9640,392214.6698,193301.3549,0.0,1,https://place.map.kakao.com/17057879#review,,,,3.9,리뷰 17개,https://goo.gl/maps/ctf84xdkvb9W3JmWA,129.10900793760393,35.22058359598561
129,속시원한 동태탕,부산광역시 금정구 금사동 68-40번지,금정구,금사동,일식,051 5234686,392295.4292,193300.141,,,,,,,,,,129.10989409725954,35.2205571999089
130,영준이횟집,부산광역시 금정구 남산동 101-1번지,금정구,남산동,회집,,390128.1109,198530.0096,5.0,2,https://place.map.kakao.com/1145790759#review,,,,,,,129.0873127570528,35.26807751509253
131,태평양,부산광역시 금정구 남산동 103-1번지 1층,금정구,남산동,회집,051 512 4422,390196.7027,198536.6829,0.0,36,https://place.map.kakao.com/9497923#review,,,,,,,129.08806763775286,35.26812461168678
132,만조스시,부산광역시 금정구 남산동 122-14,금정구,남산동,일식,,390158.2414,198173.4759,0.0,1,https://place.map.kakao.com/477726843#review,4.75,10,https://m.place.naver.com/share?id=1012743255&tabsPath=%2Fhome&appMode=detail,,,,129.08756121456938,35.26486036528576
133,맥,부산광역시 금정구 남산동 332-31번지,금정구,남산동,일식,,390010.9615,198560.7378,0.0,8,https://place.map.kakao.com/445276139#review,,,,,,,129.08603321818757,35.2683765090361
134,대양회직판장,부산광역시 금정구 남산동 45-20,금정구,남산동,횟집,051 5822237,390242.5316,198713.0891,0.0,1,https://place.map.kakao.com/103086831#review,4.2,10,https://m.place.naver.com/share?id=1245052802&tabsPath=%2Fhome&appMode=detail,,,,129.0886117960542,35.26970487099346
135,해운대횟집,부산광역시 금정구 남산동 45-28번지,금정구,남산동,회집,051583 8368,390094.4167,198730.6108,0.0,1,https://place.map.kakao.com/14685553#review,4.49,42,https://m.place.naver.com/share?id=20546892&tabsPath=%2Fhome&appMode=detail,4.2,리뷰 18개,https://goo.gl/maps/fcvXRiooNZxjULAW6,129.08698908418367,35.26989079655078
136,충주회식당,부산광역시 금정구 남산동 45-31번지,금정구,남산동,회집,51,390142.493,198711.8635,0.0,0,https://place.map.kakao.com/10834964#review,,,,,,,129.0875127768232,35.269712813690525
137,한우가(家),부산광역시 금정구 남산동 84-13번지,금정구,남산동,회집,,390131.3572,198669.66,,,,,,,,,,129.0873807096226,35.26933478326006
138,시장횟집,부산광역시 금정구 남산동 84-17,금정구,남산동,횟집,51,390129.5147,198685.1962,0.0,3,https://place.map.kakao.com/7973678#review,,,,,,,129.0873640666624,35.26947507315821
139,부부스시,부산광역시 금정구 남산동 91-17,금정구,남산동,일식,051 516 5778,390334.1279,198507.6875,5.0,5,https://place.map.kakao.com/24177237#review,4.63,92,https://m.place.naver.com/share?id=34714378&tabsPath=%2Fhome&appMode=detail,3.7,리뷰 19개,https://goo.gl/maps/DGB94FobED5mBRHm9,129.08957025142,35.2678373548743
140,삼천포 횟집,부산광역시 금정구 남산동 953-1,금정구,남산동,횟집,051 518 1157,389661.825,199298.2523,1.0,0,https://place.map.kakao.com/13090530#review,3.92,26,https://m.place.naver.com/share?id=13361767&tabsPath=%2Fhome&appMode=detail,3.2,리뷰 51개,https://goo.gl/maps/BVqJkEQi9idcvcD47,129.08236884180172,35.275085719682345
141,거복,부산광역시 금정구 남산동 961-23번지,금정구,남산동,일식,051 518 2347,389628.5114,199098.3654,0.0,0,https://place.map.kakao.com/21429325#review,,,,,,,129.08195680838466,35.27329156258382
142,오오횟집,부산광역시 금정구 남산동 986-21,금정구,남산동,횟집,051 5217666,389943.4662,198224.2823,0.0,0,https://place.map.kakao.com/1484102361#review,,,,,,,129.08521418776664,35.2653587142298
143,오이시생라멘,부산광역시 금정구 남산동 988-16번지,금정구,남산동,일식,051 5179222,389791.8557,198242.2825,3.5,5,https://place.map.kakao.com/319372768#review,4.52,53,https://m.place.naver.com/share?id=426560500&tabsPath=%2Fhome&appMode=detail,4.8,리뷰 4개,https://goo.gl/maps/BKDxf4zQ7uXJXKCQA,129.0835532717239,35.26554956341198
144,수라이크(soolike),부산광역시 금정구 남산동 988-9번지 남산하이시티,금정구,남산동,일식,,389832.6556,198247.7867,,,,4.87,43,https://m.place.naver.com/share?id=1096148539&tabsPath=%2Fhome&appMode=detail,,,,129.08400263094222,35.26559141690704
145,아쿠아카페,부산광역시 금정구 남산동 989-13,금정구,남산동,횟집,051 5835952,389634.6094,198354.1099,0.0,1,https://place.map.kakao.com/762332651#review,4.57,23,https://m.place.naver.com/share?id=1453515911&tabsPath=%2Fhome&appMode=detail,,,,129.0818520921124,35.266586596513434
146,학사주점,부산광역시 금정구 남산동 99-37,금정구,남산동,횟집,051 581 5563,390082.563,198418.1574,0.0,1,https://place.map.kakao.com/900698550#review,,,,5.0,리뷰 1개,https://goo.gl/maps/iXXJvdney9aYifMz9,129.08678664735828,35.26707865767206
147,일식삼찬,부산광역시 금정구 남산동 995-9번지,금정구,남산동,일식,051 527 4083,389907.6862,198200.6205,0.0,0,https://place.map.kakao.com/1929593808#review,,,,,,,129.084815766848,35.26515236156685
148,영진돼지국밥,부산광역시 금정구 부곡동 22-3번지,금정구,부곡동,회집,051 5186050,390534.201,195701.7637,4.0,13,https://place.map.kakao.com/27289774#review,,,,5.0,리뷰 1개,https://goo.gl/maps/m8TktkhfoRH41L3n8,129.0911177192322,35.24252533905085
149,남해청정횟집,부산광역시 금정구 부곡동 224-55번지,금정구,부곡동,회집,051 513 7117,390054.5652,195224.8525,5.0,0,https://place.map.kakao.com/674169808#review,4.42,33,https://m.place.naver.com/share?id=1486303119&tabsPath=%2Fhome&appMode=detail,,,,129.085741476181,35.2383205630585
150,동경,부산광역시 금정구 부곡동 224-59번지,금정구,부곡동,일식,,390069.2093,195178.9204,4.0,2,https://place.map.kakao.com/27593014#review,,,,,,,129.08589164842965,35.23790405921147
151,기장방우횟집,부산광역시 금정구 부곡동 26-28 1층,금정구,부곡동,횟집,051 5814346,390557.0167,195575.6901,3.9,13,https://place.map.kakao.com/22975843#review,4.41,82,https://m.place.naver.com/share?id=11479273&tabsPath=%2Fhome&appMode=detail,4.0,리뷰 157개,https://goo.gl/maps/qvKSataYvo71PaSA9,129.09133903709795,35.24138541141323
152,또와또와,부산광역시 금정구 부곡동 300-4번지,금정구,부곡동,회집,051 5185123,390212.6423,193914.4163,0.0,0,https://place.map.kakao.com/1551632088#review,,,,,,,129.0871743181558,35.22648694662305
153,우럭만공격,부산광역시 금정구 부곡동 308-2번지,금정구,부곡동,회집,051 5123759,390443.288,193821.6416,0.0,0,https://place.map.kakao.com/323722516#review,,,,4.5,리뷰 2개,https://goo.gl/maps/rGRPnXswxzGbvJ4o9,129.0896847343788,35.22560755905585
154,동현횟집,부산광역시 금정구 부곡동 334-1번지,금정구,부곡동,회집,051 5147649,390323.9616,193525.4234,5.0,1,https://place.map.kakao.com/16695281#review,,,,,,,129.08830643877036,35.22296201973076
155,연어집(동래금정점),부산광역시 금정구 부곡동 386-1 신동아아파트,금정구,부곡동,일식,,390241.5231,193380.5634,0.0,0,https://place.map.kakao.com/1458491880#review,,,,,,,129.087368079747,35.22167282400678
156,부곡회센타,부산광역시 금정구 부곡동 387-3번지,금정구,부곡동,회집,051 5176905,390154.2136,193357.7523,0.0,0,https://place.map.kakao.com/16217829#review,,,,,,,129.08640444957553,35.22148389209812
157,바로바로도매횟집,부산광역시 금정구 부곡동 391-16번지,금정구,부곡동,회집,,390027.3544,193296.7833,,,,,,,,,,129.08499790199542,35.22095873189181
158,유진횟집,부산광역시 금정구 부곡동 391-16번지,금정구,부곡동,회집,,390027.3544,193296.7833,0.0,0,https://place.map.kakao.com/1891628745#review,4.76,17,https://m.place.naver.com/share?id=1924437943&tabsPath=%2Fhome&appMode=detail,,,,129.08499790199542,35.22095873189181
159,뿔발,부산광역시 금정구 부곡동 392-5,금정구,부곡동,일식,,390070.4855,193263.8995,,,,,,,5.0,리뷰 1개,https://goo.gl/maps/QyvWAxcKMCff3uGg7,129.0854637482057,35.22065436915506
160,전원장,부산광역시 금정구 부곡동 5-28번지,금정구,부곡동,회집,051 5149997,391124.3223,196126.0789,,,,,,,,,,129.09769542753511,35.24623506010123
161,동해 회 도매집,부산광역시 금정구 부곡동 57-6번지,금정구,부곡동,회집,051 5139225,390554.4522,195532.1283,0.0,1,https://place.map.kakao.com/481893733#review,4.68,42,https://m.place.naver.com/share?id=1806087327&tabsPath=%2Fhome&appMode=detail,,,,129.09130079689967,35.24099352004581
162,최가네 착한초밥,부산광역시 금정구 부곡동 63-1번지,금정구,부곡동,일식,,390237.6593,195579.4659,4.5,6,https://place.map.kakao.com/495454389#review,4.49,155,https://m.place.naver.com/share?id=1874681631&tabsPath=%2Fhome&appMode=detail,4.3,리뷰 3개,https://goo.gl/maps/FZae779RwruAfUPY9,129.08783359193214,35.24148002119277
163,거북선 횟집,부산광역시 금정구 부곡동 64-7번지,금정구,부곡동,회집,051 513 2999,390285.4572,195757.3541,0.0,0,https://place.map.kakao.com/1530535798#review,4.39,58,https://m.place.naver.com/share?id=1179029506&tabsPath=%2Fhome&appMode=detail,,,,129.08839950216657,35.243073269989694
164,도우도우스시,부산광역시 금정구 부곡동 65-105,금정구,부곡동,일식,051 5131888,390191.4971,195403.8391,2.0,11,https://place.map.kakao.com/2016140878#review,4.38,154,https://m.place.naver.com/share?id=1930929347&tabsPath=%2Fhome&appMode=detail,4.0,리뷰 22개,https://goo.gl/maps/kFYzgrpDcpXjttdV7,129.08728618628535,35.239906827939684
165,장보고 회초장집,부산광역시 금정구 부곡동 866-43번지,금정구,부곡동,회집,,389991.2836,193293.7168,0.0,0,https://place.map.kakao.com/1161424686#review,4.55,30,https://m.place.naver.com/share?id=1349250832&tabsPath=%2Fhome&appMode=detail,5.0,리뷰 1개,https://goo.gl/maps/29pdbJk8TVWzxn4g9,129.08460126132,35.22093793601984
166,장보고회초장집,부산광역시 금정구 부곡동 866-44번지,금정구,부곡동,회집,,389982.5098,193290.675,0.0,0,https://place.map.kakao.com/1161424686#review,,,,5.0,리뷰 1개,https://goo.gl/maps/HAZuovbxUUvg1KH59,129.08450425379513,35.22091219714092
167,회식,부산광역시 금정구 부곡동 871-16번지,금정구,부곡동,회집,,389936.7409,193188.4251,0.0,3,https://place.map.kakao.com/2018145265#review,,,,4.0,리뷰 5개,https://goo.gl/maps/7WPqgSTQRjrwBtm56,129.083978299987,35.21999984265906
168,회동곰장어,부산광역시 금정구 부곡동 873-47,금정구,부곡동,횟집,051 5153174,389938.68,193216.1219,0.0,2,https://place.map.kakao.com/916307491#review,,,,,,,129.08400596843347,35.22024895397511
169,해룡 횟집,부산광역시 금정구 서동 117-1번지,금정구,서동,횟집,051 523 5579,392085.8139,193124.3154,3.0,1,https://place.map.kakao.com/24055742#review,,,,4.0,리뷰 31개,https://goo.gl/maps/ZPexbg6HsncXNy2Q8,129.10755230201218,35.219013599179135
170,칠암회맛집,부산광역시 금정구 서동 121-23번지,금정구,서동,회집,051 5285040,391862.7521,192733.2442,0.0,0,https://place.map.kakao.com/67619234#review,,,,,,,129.10501289957725,35.21553372531489
171,정스시,부산광역시 금정구 서동 121-30번지,금정구,서동,일식,,391876.4598,192780.2528,0.0,2,https://place.map.kakao.com/1646092689#review,4.59,37,https://m.place.naver.com/share?id=1492749045&tabsPath=%2Fhome&appMode=detail,4.5,리뷰 10개,https://goo.gl/maps/MDjEjFBLtRxKRUXY9,129.1051742945981,35.21595452972099
172,오뚜기횟집,부산광역시 금정구 서동 121-5번지,금정구,서동,회집,,391838.3969,192760.5158,0.0,0,https://place.map.kakao.com/12408054#review,,,,3.9,리뷰 22개,https://goo.gl/maps/VzuRBtMVeezQSgfk7,129.10475193173806,35.21578402269492
173,대덕회센타,부산광역시 금정구 서동 194-7번지,금정구,서동,회집,,391447.4168,192751.1489,,,,,,,,,,129.10045845537405,35.21577425667125
174,싸리초밥,부산광역시 금정구 서동 202-12번지,금정구,서동,일식,051 5274276,391545.9245,192579.862,1.0,6,https://place.map.kakao.com/820291269#review,4.49,122,https://m.place.naver.com/share?id=38506456&tabsPath=%2Fhome&appMode=detail,,,,129.1014998468555,35.21421262859194
175,도쿠도쿠,부산광역시 금정구 서동 204-10번지,금정구,서동,일식,051 7463863,391738.4523,192665.6036,0.0,1,https://place.map.kakao.com/1780296657#review,,,,4.0,리뷰 11개,https://goo.gl/maps/fXjD4DBMFNz4VQKq6,129.10363288706606,35.21494819946028
176,서동 양곱창,부산광역시 금정구 서동 205-20번지,금정구,서동,회집,051 5261392,391767.7277,192624.8095,0.0,2,https://place.map.kakao.com/16811055#review,,,,,,,129.10394471198296,35.21457516295476
177,기장 산 곰장어,부산광역시 금정구 서동 205-6번지,금정구,서동,회집,051 532 9288,391697.6461,192621.0682,0.0,0,https://place.map.kakao.com/2026111480#review,4.55,10,https://m.place.naver.com/share?id=1065665167&tabsPath=%2Fhome&appMode=detail,,,,129.10317465577677,35.214554842025905
178,동경식당,부산광역시 금정구 서동 206-13번지,금정구,서동,일식,051 5268488,391826.4414,192681.0762,4.0,1,https://place.map.kakao.com/10310971#review,,,,,,,129.10460222314524,35.215070765324505
179,막썰어 횟집,부산광역시 금정구 서동 209-1번지,금정구,서동,회집,,391781.1187,192580.29,0.0,0,https://place.map.kakao.com/1870621092#review,,,,5.0,리뷰 1개,https://goo.gl/maps/Fi8icBeu7R7DHCas9,129.104081327723,35.21417160282001
180,오륜대향어회,부산광역시 금정구 서동 209-2번지,금정구,서동,회집,051 5276688,391800.8446,192575.839,0.0,0,https://place.map.kakao.com/1166764100#review,4.29,24,https://m.place.naver.com/share?id=1765512354&tabsPath=%2Fhome&appMode=detail,3.5,리뷰 2개,https://goo.gl/maps/ohPenNKfvmvRLK76A,129.10429679401392,35.21412774435886
181,청춘식당(오댕빠),부산광역시 금정구 서동 302-1277번지,금정구,서동,일식,,391017.3357,192812.871,,,,,,,,,,129.09575228324027,35.21641210337171
182,베네토피자,부산광역시 금정구 서동 302-949번지,금정구,서동,회집,051 5255752,391118.177,192771.6838,0.0,0,https://place.map.kakao.com/10397727#review,,,,5.0,리뷰 2개,https://goo.gl/maps/i8d8HUeUfwgzDrnT9,129.09684955410378,35.21602192891108
183,동래가야밀면,부산광역시 금정구 서동 620-34,금정구,서동,횟집,,390842.9356,192876.166,0.0,6,https://place.map.kakao.com/1319895720#review,4.32,44,https://m.place.naver.com/share?id=1113675340&tabsPath=%2Fhome&appMode=detail,,,,129.09385274340667,35.217015383235186
184,와가야금정점,부산광역시 금정구 장전동 155-17 장성시장,금정구,장전동,일식,,389778.9137,195126.1607,,,,,,,,,,129.08269237292262,35.23748376983105
185,장보고수산센터,부산광역시 금정구 장전동 155-4 하나로빌딩,금정구,장전동,횟집,051 581 7767,389800.44,195144.0346,0.0,0,https://place.map.kakao.com/1318916436#review,,,,,,,129.08293282645343,35.23764069699496
186,시민족발보쌈(장전),부산광역시 금정구 장전동 157-9,금정구,장전동,일식,,389783.8563,195210.3765,0.0,0,https://place.map.kakao.com/1589752655#review,,,,,,,129.08276604937882,35.238241404764445
187,꾼2013,부산광역시 금정구 장전동 203-12번지,금정구,장전동,회집,051 5141209,389866.5623,195321.7389,5.0,1,https://place.map.kakao.com/1592984895#review,4.65,26,https://m.place.naver.com/share?id=1655999438&tabsPath=%2Fhome&appMode=detail,4.8,리뷰 20개,https://goo.gl/maps/MWTaMxXy5Ew1sFcF9,129.08369975326374,35.239228850449145
188,이수초밥,부산광역시 금정구 장전동 204-1 세종장모텔,금정구,장전동,일식,,389910.5026,195382.3942,0.0,0,https://place.map.kakao.com/1973515182#review,,,,,,,129.0841961674712,35.23976688447785
189,가거도횟집,부산광역시 금정구 장전동 211-6,금정구,장전동,횟집,051 512 7770,389967.3651,195253.4917,3.3,3,https://place.map.kakao.com/16957058#review,4.45,111,https://m.place.naver.com/share?id=32019251&tabsPath=%2Fhome&appMode=detail,3.7,리뷰 38개,https://goo.gl/maps/EtEFMrYdhz51a7mh9,129.0847907227621,35.23859504006166
190,네네치킨 장전점,부산광역시 금정구 장전동 221-24번지,금정구,장전동,횟집,051 5173404,389851.8704,195100.1985,,,,,,,,,,129.08348736379665,35.23723611711282
191,오키나와키친,부산광역시 금정구 장전동 293-106번지,금정구,장전동,일식,,390058.6252,194285.4752,4.6,26,https://place.map.kakao.com/1148165743#review,,,,4.4,리뷰 62개,https://goo.gl/maps/jXoHY3b4UCBXhJdf9,129.08556924140447,35.2298584100642
192,아노,부산광역시 금정구 장전동 293-19번지,금정구,장전동,일식,,390063.0834,194177.2377,3.0,8,https://place.map.kakao.com/250283571#review,4.5,47,https://m.place.naver.com/share?id=1993103248&tabsPath=%2Fhome&appMode=detail,3.3,리뷰 4개,https://goo.gl/maps/c1dYMTKRgQgt6AzK8,129.08559320636908,35.22888262242644
193,프리미엄 오야지스시,부산광역시 금정구 장전동 293-68번지,금정구,장전동,일식,,390046.2129,194168.7351,,,,,,,,,,129.08540604647075,35.22880922971628
194,오야지스시,부산광역시 금정구 장전동 293-68번지,금정구,장전동,일식,,390046.2129,194168.7351,3.1,48,https://place.map.kakao.com/1734833734#review,4.57,200,https://m.place.naver.com/share?id=1841205347&tabsPath=%2Fhome&appMode=detail,,,,129.08540604647075,35.22880922971628
195,살몬살롱,부산광역시 금정구 장전동 296-2,금정구,장전동,일식,,390000.8135,194112.6228,0.0,6,https://place.map.kakao.com/1522651255#review,4.84,74,https://m.place.naver.com/share?id=1449708313&tabsPath=%2Fhome&appMode=detail,,,,129.08489472561985,35.22831239471755
196,토모리,부산광역시 금정구 장전동 334-43번지,금정구,장전동,일식,,389701.9945,194163.3073,5.0,2,https://place.map.kakao.com/927538098#review,,,,4.5,리뷰 6개,https://goo.gl/maps/wx2ieGfThYibi1qcA,129.08162609098275,35.22882544645601
197,원촌,부산광역시 금정구 장전동 385-19번지,금정구,장전동,일식,,389797.6931,194760.3981,0.0,2,https://place.map.kakao.com/12077248#review,4.22,18,https://m.place.naver.com/share?id=12003380&tabsPath=%2Fhome&appMode=detail,3.9,리뷰 9개,https://goo.gl/maps/7DENroEAH86zTtCc8,129.0828142386491,35.23418562885767
198,야타이스시,부산광역시 금정구 장전동 393-2번지,금정구,장전동,일식,,389982.7816,194623.415,4.0,11,https://place.map.kakao.com/27503177#review,4.61,72,https://m.place.naver.com/share?id=1243238995&tabsPath=%2Fhome&appMode=detail,,,,129.084814603479,35.23291674254918
199,칼맛나는 푸짐한 횟집,부산광역시 금정구 장전동 394-6,금정구,장전동,횟집,051 5139883,390075.3107,194537.3589,4.3,25,https://place.map.kakao.com/16643327#review,4.49,88,https://m.place.naver.com/share?id=16887605&tabsPath=%2Fhome&appMode=detail,4.5,리뷰 36개,https://goo.gl/maps/QyVm3LsVrBpyzq8VA,129.0858105420453,35.232124078918886
200,스시투어,부산광역시 금정구 장전동 40 부산대학교,금정구,장전동,일식,,389314.6621,194669.8988,0.0,6,https://place.map.kakao.com/110005899#review,4.74,21,https://m.place.naver.com/share?id=1831704354&tabsPath=%2Fhome&appMode=detail,4.0,리뷰 2개,https://goo.gl/maps/b3jdwSSFfWZ3cYQ49,129.07749053123766,35.23346168610523
201,모시모시,부산광역시 금정구 장전동 401-5번지,금정구,장전동,일식,051 514 6249,389733.082,194541.6813,2.2,79,https://place.map.kakao.com/17157928#review,4.39,273,https://m.place.naver.com/share?id=21203707&tabsPath=%2Fhome&appMode=detail,3.7,리뷰 150개,https://goo.gl/maps/4bnH5jeCqwm5Eyyn9,129.0820545228458,35.232227762075894
202,테루부산대NC점,부산광역시 금정구 장전동 40번지,금정구,장전동,일식,051 509 7363,389314.6621,194669.8988,1.0,10,https://place.map.kakao.com/19299528#review,,,,,,,129.07749053123766,35.23346168610523
203,칼맛나는 푸짐한 횟집,부산광역시 금정구 장전동 412-10,금정구,장전동,횟집,051 5139883,390074.5539,194517.8758,4.3,25,https://place.map.kakao.com/16643327#review,4.49,88,https://m.place.naver.com/share?id=16887605&tabsPath=%2Fhome&appMode=detail,4.5,리뷰 36개,https://goo.gl/maps/VJLqoiUGxpasV5M38,129.0857977372065,35.23194872934531
204,스시마이우 부산대점,부산광역시 금정구 장전동 413-11,금정구,장전동,일식,,389987.3998,194443.639,0.0,8,https://place.map.kakao.com/1094712482#review,,,,3.0,리뷰 24개,https://goo.gl/maps/qdKHcSjUDu2KWtLS9,129.08482383003948,35.2312965455833
205,크라운 닭발,부산광역시 금정구 장전동 413-28번지,금정구,장전동,일식,,389957.0332,194490.5735,3.7,87,https://place.map.kakao.com/2144907200#review,4.62,144,https://m.place.naver.com/share?id=1921116002&tabsPath=%2Fhome&appMode=detail,3.9,리뷰 27개,https://goo.gl/maps/fNdDKXK6FUfSgVeTA,129.08450129201185,35.23172505294893
206,일심당,부산광역시 금정구 장전동 413-56,금정구,장전동,일식,051 515 4129,389972.0467,194441.5585,1.0,11,https://place.map.kakao.com/927694676#review,4.16,64,https://m.place.naver.com/share?id=1491814367&tabsPath=%2Fhome&appMode=detail,4.4,리뷰 480개,https://goo.gl/maps/S8oSghAbMWcJpDJ88,129.08465480440182,35.231280711437776
207,하나이미,부산광역시 금정구 장전동 414-11번지,금정구,장전동,일식,,390089.3331,194370.9164,4.1,66,https://place.map.kakao.com/1794729986#review,4.63,442,https://m.place.naver.com/share?id=231551807&tabsPath=%2Fhome&appMode=detail,4.3,리뷰 32개,https://goo.gl/maps/kTS4k9ZkShQLz9o87,129.0859260647178,35.23062220226558
208,심,부산광역시 금정구 장전동 414-23번지,금정구,장전동,일식,,390016.0319,194388.179,0.0,3,https://place.map.kakao.com/1560537962#review,,,,,,,129.0851253566387,35.230791572798495
209,짬뽕상회 부산대점,부산광역시 금정구 장전동 416-10번지,금정구,장전동,회집,051 5180069,389935.4876,194491.8245,3.2,17,https://place.map.kakao.com/1083733368#review,4.26,218,https://m.place.naver.com/share?id=120208224&tabsPath=%2Fhome&appMode=detail,3.3,리뷰 4개,https://goo.gl/maps/z5bkY2SipzkRMCVo7,129.08426505245615,35.23174039851252
210,라멘쿠우,부산광역시 금정구 장전동 418-47번지,금정구,장전동,회집,051 515 3088,389795.9274,194611.4389,5.0,11,https://place.map.kakao.com/1349681810#review,4.65,57,https://m.place.naver.com/share?id=1524375423&tabsPath=%2Fhome&appMode=detail,4.1,리뷰 14개,https://goo.gl/maps/vqaQEtWKv4CAtaxa9,129.0827605227132,35.23284421919506
211,투고샐러드,부산광역시 금정구 장전동 418-63,금정구,장전동,일식,051 9371259,389784.4291,194557.6378,3.3,35,https://place.map.kakao.com/1921076947#review,,,,,,,129.08262189373175,35.232361782203625
212,밥에큐본점,부산광역시 금정구 장전동 418-68번지,금정구,장전동,일식,051 5133458,389769.2789,194472.4342,2.8,12,https://place.map.kakao.com/992905930#review,4.35,160,https://m.place.naver.com/share?id=1022701436&tabsPath=%2Fhome&appMode=detail,4.1,리뷰 139개,https://goo.gl/maps/CWqNGsbyoNSsNtFM7,129.08243593991352,35.23159717859622
213,박가부대찌개 부산대점,부산광역시 금정구 장전동 418-79번지,금정구,장전동,일식,,389773.6167,194489.2585,3.6,35,https://place.map.kakao.com/26913208#review,,,,,,,129.08248743713938,35.23174790271063
214,톤쇼우,부산광역시 금정구 장전동 419-21번지,금정구,장전동,일식,051 5135263,389678.909,194343.2584,3.8,350,https://place.map.kakao.com/704518356#review,,,,4.6,리뷰 621개,https://goo.gl/maps/H5d13ss26wy2d7ef8,129.0814141072494,35.230450713001346
215,노프247(NOF247),부산광역시 금정구 장전동 419-6,금정구,장전동,일식,,389757.3997,194633.1983,,,,,,,,,,129.0823425723207,35.23304750081535
216,스시심,부산광역시 금정구 장전동 419-7,금정구,장전동,일식,,389771.1379,194632.7978,3.7,72,https://place.map.kakao.com/1128490425#review,,,,4.6,리뷰 175개,https://goo.gl/maps/YyrygCeFDAfqYmVG6,129.08249330091903,35.23304129590502
217,이츠키,부산광역시 금정구 장전동 420-41,금정구,장전동,일식,,389770.6411,194397.1093,5.0,5,https://place.map.kakao.com/186248602#review,,,,5.0,리뷰 6개,https://goo.gl/maps/ZgKbWgWiGqZUexRx7,129.08243353787103,35.23091843487017
218,단지물회 부산대직영점,부산광역시 금정구 장전동 420-5,금정구,장전동,일식,,389797.0482,194367.598,0.0,10,https://place.map.kakao.com/799395505#review,4.47,36,https://m.place.naver.com/share?id=1625631206&tabsPath=%2Fhome&appMode=detail,5.0,리뷰 1개,https://goo.gl/maps/qQkFu4y48Bdwyin68,129.08271663228473,35.23064762017663
219,더 산오징어,부산광역시 금정구 장전동 420-6번지,금정구,장전동,회집,,389790.1865,194333.7632,1.0,4,https://place.map.kakao.com/767648926#review,4.45,50,https://m.place.naver.com/share?id=1350884201&tabsPath=%2Fhome&appMode=detail,,,,129.08263350861176,35.230344151893554
220,사사야키 부산대점,부산광역시 금정구 장전동 422-41번지,금정구,장전동,일식,,389801.4309,194276.7824,4.5,73,https://place.map.kakao.com/1512995650#review,,,,4.3,리뷰 85개,https://goo.gl/maps/dp6YLmG7wJCXsX3YA,129.08274381707852,35.2298287734216
221,엠 멘토,부산광역시 금정구 장전동 423-17번지,금정구,장전동,일식,051 583 6798,389733.7437,194286.1088,,,,,,,,,,129.0820029102348,35.22992557670138
222,홍주방 부산대점,부산광역시 금정구 장전동 423-36,금정구,장전동,일식,,389773.1287,194249.5174,3.0,6,https://place.map.kakao.com/119796208#review,4.55,112,https://m.place.naver.com/share?id=1843305999&tabsPath=%2Fhome&appMode=detail,,,,129.0824268397988,35.229588535892496
223,거북선,부산광역시 금정구 장전동 423-8,금정구,장전동,일식,051 513 9279,389723.5998,194220.2741,0.0,0,https://place.map.kakao.com/1530535798#review,4.39,58,https://m.place.naver.com/share?id=1179029506&tabsPath=%2Fhome&appMode=detail,,,,129.08187638796582,35.22933449004496
224,우마이도,부산광역시 금정구 장전동 424-2번지,금정구,장전동,일식,051 3269183,389690.4132,194309.0175,3.7,30,https://place.map.kakao.com/8468319#review,,,,3.9,리뷰 380개,https://goo.gl/maps/nHCf6Q2aMSCz1PrP9,129.08153251281226,35.23014011523276
225,대성관,부산광역시 금정구 장전동 598-8번지,금정구,장전동,일식,051 5184001,389465.4826,193706.8167,5.0,1,https://place.map.kakao.com/8871991#review,,,,,,,129.07892475110114,35.22475827941081
226,스시(SUSHI) 99.9,부산광역시 금정구 장전동 605-1,금정구,장전동,일식,051 517 9909,389783.35,193660.2832,4.3,0,https://place.map.kakao.com/1693190785#review,4.49,208,https://m.place.naver.com/share?id=1255269514&tabsPath=%2Fhome&appMode=detail,3.0,리뷰 1개,https://goo.gl/maps/VagLuhvo6vAcz34n8,129.08240329562958,35.224279095014914
227,미가참치,부산광역시 금정구 장전동 614-12번지,금정구,장전동,회집,,389648.5795,193652.1256,,,,,,,,,,129.08092203672058,35.22423108137843
228,진진횟집,부산광역시 금정구 장전동 623-9번지,금정구,장전동,회집,051 582 9910,389633.3234,193818.5883,5.0,7,https://place.map.kakao.com/25738688#review,4.46,116,https://m.place.naver.com/share?id=34922875&tabsPath=%2Fhome&appMode=detail,4.3,리뷰 149개,https://goo.gl/maps/8xgqaMfu5JCvq3GT7,129.08079288654855,35.22573337260495
229,한바다횟집,부산광역시 금정구 장전동 636-13번지,금정구,장전동,회집,051 517 2656,389784.2879,193889.8112,0.0,0,https://place.map.kakao.com/9583952#review,,,,4.0,리뷰 19개,https://goo.gl/maps/7JX3Est2Gw6QoHpQ8,129.08246646695324,35.22634638455272
230,스시웨이,부산광역시 금정구 장전동 643-117번지,금정구,장전동,일식,,390092.4978,194255.9699,,,,,,,,,,129.08593427708368,35.229586228817446
231,우럭잡는 김선장,부산광역시 금정구 장전동 643-282번지,금정구,장전동,회집,,390091.7517,194134.408,4.0,12,https://place.map.kakao.com/23637874#review,4.4,53,https://m.place.naver.com/share?id=33492504&tabsPath=%2Fhome&appMode=detail,3.9,리뷰 62개,https://goo.gl/maps/QRccUcfZHMaBebyo9,129.0858980320995,35.22849140790704
232,도조스시,부산광역시 금정구 장전동 655-13,금정구,장전동,일식,051 581 8777,389786.5398,195388.751,3.5,1,https://place.map.kakao.com/516936603#review,4.49,46,https://m.place.naver.com/share?id=1149272628&tabsPath=%2Fhome&appMode=detail,5.0,리뷰 3개,https://goo.gl/maps/XzJGTuuSod9QooyH7,129.08283663138943,35.239847596348724
233,남산회도매,부산광역시 금정구 청룡동 31-5,금정구,청룡동,횟집,051 5088010,390040.0701,199333.1972,5.0,1,https://place.map.kakao.com/21338378#review,,,,,,,129.08653151517385,35.27532882492367
234,만포장집,부산광역시 금정구 청룡동 359-11번지,금정구,청룡동,회집,051 5086673,389655.7405,199735.5727,,,,,,,,,,129.0824029437252,35.27902598834465
235,장보고 회수산,부산광역시 금정구 청룡동 57-12번지,금정구,청룡동,회집,051 5086000,390262.4741,199265.4725,0.0,3,https://place.map.kakao.com/1102155981#review,4.3,40,https://m.place.naver.com/share?id=1192083383&tabsPath=%2Fhome&appMode=detail,5.0,리뷰 1개,https://goo.gl/maps/wA7gjMsHfeKr2cP87,129.08895869370068,35.27467660395364
236,서준활어,부산광역시 기장군 기장읍 교리 323-10번지,기장군,기장읍,회집,051 723 9900,401524.4224,197223.4829,5.0,1,https://place.map.kakao.com/26813132#review,4.12,29,https://m.place.naver.com/share?id=36760187&tabsPath=%2Fhome&appMode=detail,4.5,리뷰 50개,https://goo.gl/maps/8Jzsd7iiU3C5tup57,129.21215039808922,35.25408384810676
237,일광활어회,부산광역시 기장군 기장읍 교리 331-1번지 고미숯불갈비,기장군,기장읍,회집,051 723 0525,401480.4274,197138.0008,0.0,0,https://place.map.kakao.com/1770976373#review,,,,5.0,리뷰 1개,https://goo.gl/maps/MieZ8QHFPdG5mSNm6,129.21164639307554,35.253322778645995
238,부부횟집,부산광역시 기장군 기장읍 교리 332-1 마루명가,기장군,기장읍,일식,051 722 7359,401531.7341,197181.2768,5.0,1,https://place.map.kakao.com/651206468#review,4.61,69,https://m.place.naver.com/share?id=16855096&tabsPath=%2Fhome&appMode=detail,3.9,리뷰 20개,https://goo.gl/maps/ZctkUqeGjzZXpR9E9,129.2122203422612,35.25370224288601
239,방어진,부산광역시 기장군 기장읍 교리 336-4,기장군,기장읍,횟집,051 723 2280,401579.2353,196968.8289,0.0,0,https://place.map.kakao.com/932595540#review,4.14,14,https://m.place.naver.com/share?id=1231780990&tabsPath=%2Fhome&appMode=detail,3.9,리뷰 10개,https://goo.gl/maps/RJPqqhkqbevSRfCu7,129.2126898561177,35.2517792510441
240,야미스시(Yammy Sushi),부산광역시 기장군 기장읍 교리 342-7,기장군,기장읍,일식,,401692.0386,197151.1409,,,,,,,4.3,리뷰 98개,https://goo.gl/maps/TTuCZb63fGq2UKi27,129.2139731060879,35.25339859521697
241,청포물회횟집,부산광역시 기장군 기장읍 교리 344-7번지 지상1층일부,기장군,기장읍,회집,051 723 7258,401683.1202,197066.2635,5.0,1,https://place.map.kakao.com/2070612779#review,4.3,45,https://m.place.naver.com/share?id=1926249926&tabsPath=%2Fhome&appMode=detail,,,,129.21385437506555,35.25263592742289
242,기장바다,부산광역시 기장군 기장읍 교리 344-8 1층,기장군,기장읍,횟집,051 721 9250,401706.9979,197065.6421,0.0,0,https://place.map.kakao.com/1927263715#review,,,,,,,129.21411639758173,35.25262552904049
243,ㅤㅅㅠㄴ,부산광역시 기장군 기장읍 교리 344-9번지 1층,기장군,기장읍,일식,051 724 3737,401704.8008,197045.9349,3.9,12,https://place.map.kakao.com/1146326735#review,,,,,,,129.21408744219363,35.2524484750058
244,남가네숯불갈비,부산광역시 기장군 기장읍 교리 345-4번지,기장군,기장읍,회집,051 724 0006,401667.9267,197019.7986,0.0,3,https://place.map.kakao.com/2019556786#review,,,,5.0,리뷰 1개,https://goo.gl/maps/5LkW23ZJbymSa5rr5,129.21367616259917,35.252220489160635
245,일품초밥,부산광역시 기장군 기장읍 교리 349-4,기장군,기장읍,일식,051 723 2349,401785.1956,196932.6072,5.0,9,https://place.map.kakao.com/205646750#review,4.92,65,https://m.place.naver.com/share?id=1689760089&tabsPath=%2Fhome&appMode=detail,,,,129.21494237318456,35.25141160165531
246,가배참치,부산광역시 기장군 기장읍 교리 353-1,기장군,기장읍,횟집,051 721 0447,401739.3422,197110.4456,4.5,4,https://place.map.kakao.com/5720940#review,4.54,24,https://m.place.naver.com/share?id=1888912983&tabsPath=%2Fhome&appMode=detail,,,,129.2144825209005,35.25302255329155
247,지은이네횟집,부산광역시 기장군 기장읍 교리 353-12 1층,기장군,기장읍,횟집,051 724 5567,401734.3383,197092.3403,3.7,2,https://place.map.kakao.com/1458685363#review,,,,4.3,리뷰 3개,https://goo.gl/maps/MmsMkJkmDJ7WWx9o8,129.21442313885305,35.25286049168808
248,부잣집,부산광역시 기장군 기장읍 교리 356-9,기장군,기장읍,횟집,051 722 9994,401814.33,197228.4161,0.0,0,https://place.map.kakao.com/699711380#review,,,,,,,129.21533482205973,35.254069985520005
249,형제횟집,부산광역시 기장군 기장읍 대라리 117-10번지,기장군,기장읍,횟집,,401313.6091,195809.9213,0.0,0,https://place.map.kakao.com/2084411893#review,,,,,,,129.20948984417907,35.241394680751945
250,회대장,부산광역시 기장군 기장읍 대라리 408-16,기장군,기장읍,일식,,401426.5672,195857.9629,0.0,0,https://place.map.kakao.com/2101293701#review,,,,,,,129.21074170063034,35.241804707302705
251,찌개대장,부산광역시 기장군 기장읍 대라리 418-22 금광타워 102호,기장군,기장읍,횟집,051 722 9787,401453.0492,195928.2277,5.0,0,https://place.map.kakao.com/111333403#review,,,,4.3,리뷰 73개,https://goo.gl/maps/cEtSmm8o2W62xS9V8,129.2110496282987,35.24243224376521
252,기장회마트,부산광역시 기장군 기장읍 대라리 59-1번지 [2층],기장군,기장읍,횟집,051 722 2210,401628.0904,196061.1416,5.0,0,https://place.map.kakao.com/9679882#review,,,,,,,129.2130038830496,35.243594196258414
253,정우회초장,부산광역시 기장군 기장읍 대라리 68-9 보광상가,기장군,기장읍,횟집,051 722 0544,401617.6352,196097.1707,0.0,0,https://place.map.kakao.com/23718329#review,,,,,,,129.21289792392423,35.24392079956097
254,일송횟집,부산광역시 기장군 기장읍 대라리 68-9번지 보광상가,기장군,기장읍,회집,,401617.6352,196097.1707,0.0,0,https://place.map.kakao.com/1647275537#review,,,,,,,129.21289792392423,35.24392079956097
255,다해초장,부산광역시 기장군 기장읍 대라리 68-9번지 보광상가 302호,기장군,기장읍,회집,051 7230727,401617.6352,196097.1707,5.0,1,https://place.map.kakao.com/9702985#review,4.45,28,https://m.place.naver.com/share?id=32148709&tabsPath=%2Fhome&appMode=detail,,,,129.21289792392423,35.24392079956097
256,향림초장,부산광역시 기장군 기장읍 대라리 68-9번지 보광상가201호,기장군,기장읍,회집,051 7210130,401617.6352,196097.1707,0.0,0,https://place.map.kakao.com/21336934#review,4.41,37,https://m.place.naver.com/share?id=16861934&tabsPath=%2Fhome&appMode=detail,,,,129.21289792392423,35.24392079956097
257,정동진대게,부산광역시 기장군 기장읍 대라리 68-9번지 지하3호,기장군,기장읍,회집,051 7217700,401617.6352,196097.1707,,,,,,,,,,129.21289792392423,35.24392079956097
258,뚱이초장,부산광역시 기장군 기장읍 대라리 72-1,기장군,기장읍,횟집,051 722 6369,401565.274,196052.9283,0.0,0,https://place.map.kakao.com/1923558491#review,4.13,100,https://m.place.naver.com/share?id=34711363&tabsPath=%2Fhome&appMode=detail,,,,129.212312229554,35.24353284334147
259,땡큐초장집,부산광역시 기장군 기장읍 대라리 72-1 기장시장,기장군,기장읍,횟집,051 722 4925,401565.274,196052.9283,0.0,0,https://place.map.kakao.com/504042875#review,4.3,10,https://m.place.naver.com/share?id=1663706867&tabsPath=%2Fhome&appMode=detail,,,,129.212312229554,35.24353284334147
260,유명회센터,부산광역시 기장군 기장읍 대라리 72-1 기장시장,기장군,기장읍,횟집,051 723 9661,401565.274,196052.9283,,,,,,,,,,129.212312229554,35.24353284334147
261,가빈초장,부산광역시 기장군 기장읍 대라리 72-1번지,기장군,기장읍,회집,051 723 3267,401565.274,196052.9283,0.0,1,https://place.map.kakao.com/15785631#review,4.45,52,https://m.place.naver.com/share?id=21194541&tabsPath=%2Fhome&appMode=detail,,,,129.212312229554,35.24353284334147
262,신선초장,부산광역시 기장군 기장읍 대라리 72-1번지,기장군,기장읍,회집,051 721 8119,401565.274,196052.9283,,,,,,,,,,129.212312229554,35.24353284334147
263,왕상횟집,부산광역시 기장군 기장읍 대라리 72-1번지,기장군,기장읍,회집,051 7217462,401565.274,196052.9283,,,,,,,1.0,리뷰 1개,https://goo.gl/maps/S9M8arme5njmhurt5,129.212312229554,35.24353284334147
264,경자회센타,부산광역시 기장군 기장읍 대라리 72-1번지,기장군,기장읍,회집,051 721 9767,401565.274,196052.9283,,,,,,,,,,129.212312229554,35.24353284334147
265,부경초장,부산광역시 기장군 기장읍 대라리 72-1번지 (204.208.209.214.215호),기장군,기장읍,회집,051 721 1407,401565.274,196052.9283,0.0,2,https://place.map.kakao.com/21341015#review,,,,,,,129.212312229554,35.24353284334147
266,학리초장,부산광역시 기장군 기장읍 대라리 72-1번지 [218.219.220호],기장군,기장읍,회집,051 721 1171,401565.274,196052.9283,5.0,0,https://place.map.kakao.com/15785797#review,,,,,,,129.212312229554,35.24353284334147
267,뚱이초장1,부산광역시 기장군 기장읍 대라리 72-1번지 기장시장,기장군,기장읍,횟집,,401565.274,196052.9283,,,,4.13,100,https://m.place.naver.com/share?id=34711363&tabsPath=%2Fhome&appMode=detail,,,,129.212312229554,35.24353284334147
268,파도초장,부산광역시 기장군 기장읍 대라리 72-1번지 기장시장 231~3호,기장군,기장읍,회집,051 949 7676,401565.274,196052.9283,0.0,0,https://place.map.kakao.com/1165840916#review,4.56,24,https://m.place.naver.com/share?id=1589303916&tabsPath=%2Fhome&appMode=detail,,,,129.212312229554,35.24353284334147
269,바다초장집,부산광역시 기장군 기장읍 대라리 72-1번지 기장시장 2층,기장군,기장읍,회집,051 7228389,401565.274,196052.9283,0.0,0,https://place.map.kakao.com/9009598#review,,,,4.0,리뷰 2개,https://goo.gl/maps/rTfMAWjDQsoHTX3Q7,129.212312229554,35.24353284334147
270,대도횟집,부산광역시 기장군 기장읍 대변리 277-2 1층,기장군,기장읍,횟집,051 722 0005,402719.9016,193512.5098,3.0,19,https://place.map.kakao.com/151389380#review,4.18,34,https://m.place.naver.com/share?id=171956178&tabsPath=%2Fhome&appMode=detail,3.2,리뷰 14개,https://goo.gl/maps/jqAoSNkyQUj47mhB8,129.22436314675335,35.22041964095168
271,용암할매횟집,부산광역시 기장군 기장읍 대변리 308-10,기장군,기장읍,횟집,051 7212483,403041.3158,193890.9245,4.3,14,https://place.map.kakao.com/16869270#review,4.35,237,https://m.place.naver.com/share?id=13415123&tabsPath=%2Fhome&appMode=detail,4.0,리뷰 166개,https://goo.gl/maps/Y5Gippgg6haBqTRA7,129.2279840656065,35.223762938526
272,방파제,부산광역시 기장군 기장읍 대변리 308-13번지 1층,기장군,기장읍,회집,051 721 6155,403059.0198,193846.8908,5.0,0,https://place.map.kakao.com/27150440#review,,,,,,,129.22816753078328,35.22336276395792
273,초원횟집,부산광역시 기장군 기장읍 대변리 316-23,기장군,기장읍,횟집,051 7212120,403036.6134,193939.6684,0.0,0,https://place.map.kakao.com/8571637#review,4.39,45,https://m.place.naver.com/share?id=17119379&tabsPath=%2Fhome&appMode=detail,,,,129.22794446458036,35.224202906708555
274,장군멸치회촌,부산광역시 기장군 기장읍 대변리 325-4번지,기장군,기장읍,회집,051 7212148,403011.1402,193991.659,3.2,55,https://place.map.kakao.com/9931515#review,4.27,563,https://m.place.naver.com/share?id=35438591&tabsPath=%2Fhome&appMode=detail,3.7,리뷰 682개,https://goo.gl/maps/fHYBTa5T63fRifpG8,129.22767768234607,35.22467631662796
275,해동횟집,부산광역시 기장군 기장읍 대변리 339-4번지,기장군,기장읍,회집,051 7219477,402978.2815,194009.861,3.0,3,https://place.map.kakao.com/9648416#review,,,,,,,129.227321508488,35.22484689837501
276,파도횟집,"부산광역시 기장군 기장읍 대변리 399-6번지 1층, 2층",기장군,기장읍,회집,051 7213762,402960.0898,194007.3425,4.7,4,https://place.map.kakao.com/10891543#review,,,,3.6,리뷰 85개,https://goo.gl/maps/13gwjmLFd4egFtes8,129.22712121482795,35.22482789278969
277,바다식당,부산광역시 기장군 기장읍 대변리 406-22,기장군,기장읍,횟집,051 7221765,402841.5711,194030.1156,1.0,1,https://place.map.kakao.com/9014292#review,,,,,,,129.22582595262492,35.225056952721026
278,거북이횟집,부산광역시 기장군 기장읍 대변리 406-23번지,기장군,기장읍,회집,051 7213340,402891.8557,194026.6091,2.4,3,https://place.map.kakao.com/8173321#review,4.15,58,https://m.place.naver.com/share?id=11717267&tabsPath=%2Fhome&appMode=detail,3.8,리뷰 63개,https://goo.gl/maps/TehDZfdBcz5GaQY87,129.226377017762,35.22501521071297
279,광진횟집,부산광역시 기장군 기장읍 대변리 406-24번지,기장군,기장읍,회집,051 7212122,402883.7083,194027.3634,0.0,30,https://place.map.kakao.com/9683791#review,4.32,225,https://m.place.naver.com/share?id=11731026&tabsPath=%2Fhome&appMode=detail,3.3,리뷰 76개,https://goo.gl/maps/RLkQXQury48GUoNL6,129.22628777691074,35.225023650804545
280,동원횟집,부산광역시 기장군 기장읍 대변리 447-4번지,기장군,기장읍,회집,051 7212135,402690.1596,193921.3677,2.0,1,https://place.map.kakao.com/10285594#review,4.2,66,https://m.place.naver.com/share?id=16869835&tabsPath=%2Fhome&appMode=detail,3.3,리뷰 33개,https://goo.gl/maps/RQ2KEbQPFjKUbzMc9,129.224137289396,35.22410807884407
281,부산해물탕멸치회,부산광역시 기장군 기장읍 대변리 447-5번지,기장군,기장읍,회집,051 7223312,402684.635,193907.8143,0.0,0,https://place.map.kakao.com/2099003301#review,,,,,,,129.22407331724125,35.223987123596466
282,남항횟집,"부산광역시 기장군 기장읍 대변리 447-6번지 3층 중 1층,2층,3층",기장군,기장읍,회집,051 7212302,402686.1941,193932.5573,1.6,94,https://place.map.kakao.com/10182204#review,4.42,404,https://m.place.naver.com/share?id=11707209&tabsPath=%2Fhome&appMode=detail,3.8,리뷰 186개,https://goo.gl/maps/vHTwGSzpGpbjtQL88,129.22409651687624,35.224209659982776
283,기장이화장횟집,부산광역시 기장군 기장읍 대변리 448-2,기장군,기장읍,횟집,051 7231819,402680.2609,193871.6196,2.4,59,https://place.map.kakao.com/21213673#review,4.38,352,https://m.place.naver.com/share?id=16869849&tabsPath=%2Fhome&appMode=detail,3.1,리뷰 372개,https://goo.gl/maps/NhFRQHLNnyr9hKmx8,129.2240164034099,35.22366201416547
284,일번횟집,부산광역시 기장군 기장읍 대변리 448-5번지,기장군,기장읍,회집,051 7216750,402689.7142,193893.7309,1.8,1,https://place.map.kakao.com/9370884#review,3.66,48,https://m.place.naver.com/share?id=13573439&tabsPath=%2Fhome&appMode=detail,3.3,리뷰 45개,https://goo.gl/maps/3vXHxnNZpNHzpcd46,129.22412560171043,35.22385925424724
285,사랑도횟집,부산광역시 기장군 기장읍 동부리 115-4,기장군,기장읍,횟집,7213380,401404.5778,196517.0037,4.0,5,https://place.map.kakao.com/12525810#review,4.49,104,https://m.place.naver.com/share?id=16852553&tabsPath=%2Fhome&appMode=detail,4.3,리뷰 83개,https://goo.gl/maps/24Bkft6kdhPhrJVz8,129.2106615599892,35.24774489385254
286,정성,부산광역시 기장군 기장읍 동부리 132-4번지 3층 중 1층,기장군,기장읍,일식,051 724 7660,401544.9532,196350.4848,3.5,0,https://place.map.kakao.com/25131018#review,,,,,,,129.21216199785425,35.246216920171065
287,민성호횟집,부산광역시 기장군 기장읍 동부리 134-10,기장군,기장읍,횟집,051 722 9092,401462.3936,196501.5645,0.0,0,https://place.map.kakao.com/684358716#review,4.37,42,https://m.place.naver.com/share?id=1299184343&tabsPath=%2Fhome&appMode=detail,,,,129.21129255544247,35.24759422876807
288,모리,부산광역시 기장군 기장읍 동부리 150-18,기장군,기장읍,일식,070 40627095,401497.369,196547.366,5.0,1,https://place.map.kakao.com/1194083089#review,,,,,,,129.21168777345673,35.24799972339048
289,진주육전밀면,부산광역시 기장군 기장읍 동부리 150-19번지,기장군,기장읍,일식,051 724 9240,401544.2601,196526.6575,3.7,30,https://place.map.kakao.com/1625805701#review,4.45,114,https://m.place.naver.com/share?id=1078500383&tabsPath=%2Fhome&appMode=detail,4.0,리뷰 3개,https://goo.gl/maps/v6oKS9gBCQPFxdzTA,129.2121975329101,35.24780378902441
290,낭만연어,부산광역시 기장군 기장읍 동부리 150-1번지 1층,기장군,기장읍,일식,051 721 6077,401448.3392,196547.9611,0.0,2,https://place.map.kakao.com/1345615703#review,4.42,36,https://m.place.naver.com/share?id=433713147&tabsPath=%2Fhome&appMode=detail,,,,129.21114960628285,35.24801493030029
291,딜리셔스시,부산광역시 기장군 기장읍 동부리 228-10,기장군,기장읍,일식,051 724 7833,401257.2212,196206.4815,,,,,,,,,,129.2089677547698,35.24497768982126
292,기장해물횟집,부산광역시 기장군 기장읍 동부리 361-12번지,기장군,기장읍,회집,051 7240354,401807.9409,196391.5306,0.0,0,https://place.map.kakao.com/21338721#review,,,,,,,129.21505941487737,35.246533737829544
293,청파장횟집,부산광역시 기장군 기장읍 시랑리 137번지,기장군,기장읍,회집,051 7210600,402541.52,190826.9066,0.0,0,https://place.map.kakao.com/9966563#review,,,,3.7,리뷰 3개,https://goo.gl/maps/nKSAeAC7HPDAbF997,129.22174562025023,35.196267297330905
294,아랫목횟집,부산광역시 기장군 기장읍 시랑리 538-2번지,기장군,기장읍,회집,051 7214010,401585.4479,189698.9067,,,,,,,4.0,리뷰 41개,https://goo.gl/maps/FdA6tBGJ7w5eZKpp7,129.21097975421074,35.18629988400956
295,해변횟집,부산광역시 기장군 기장읍 시랑리 584번지,기장군,기장읍,회집,051 7223874,401346.2722,189464.8553,1.0,2,https://place.map.kakao.com/10016065#review,,,,4.2,리뷰 58개,https://goo.gl/maps/2BjggPMTB1KTjQun9,129.20829866607204,35.184239757751726
296,해청횟집,부산광역시 기장군 기장읍 시랑리 62-9번지,기장군,기장읍,회집,051 7226430,402793.2587,190842.3731,4.7,6,https://place.map.kakao.com/9574961#review,,,,4.2,리뷰 81개,https://goo.gl/maps/kUWKCNr9D2JuJTDK6,129.2245115602557,35.19635583754172
297,자색미학,부산광역시 기장군 기장읍 시랑리 704-1번지,기장군,기장읍,일식,051 604 7237,402877.3165,191010.7799,3.0,24,https://place.map.kakao.com/904687297#review,,,,2.9,리뷰 15개,https://goo.gl/maps/iecdGcM7tqKozJKg7,129.2254752764796,35.19785565736241
298,대게만찬,부산광역시 기장군 기장읍 시랑리 709번지 3층,기장군,기장읍,회집,051 724 5001,402500.2034,191038.5036,3.5,384,https://place.map.kakao.com/1751201642#review,,,,3.9,"리뷰 2,478개",https://goo.gl/maps/9gUtMfdwVaV2QHMg6,129.22134422205127,35.198181411160505
299,카가와식당 부산기장롯데월드점,부산광역시 기장군 기장읍 시랑리 산 46,기장군,기장읍,일식,,401646.703,190623.4234,5.0,3,https://place.map.kakao.com/235760963#review,4.65,193,https://m.place.naver.com/share?id=1244650139&tabsPath=%2Fhome&appMode=detail,4.4,리뷰 66개,https://goo.gl/maps/3QVSDEq2egWciCN77,129.21187768240603,35.19461449962216
300,우봉식당,부산광역시 기장군 기장읍 연화리 .번지 3B 11L,기장군,기장읍,회집,051 7217153,402544.9767,193244.695,4.2,22,https://place.map.kakao.com/9937199#review,4.4,115,https://m.place.naver.com/share?id=12807423&tabsPath=%2Fhome&appMode=detail,,,,129.22237743586325,35.21804282447891
301,죽도집,부산광역시 기장군 기장읍 연화리 112,기장군,기장읍,횟집,051 7212411,402684.4817,193414.4151,3.0,9,https://place.map.kakao.com/21338779#review,4.41,87,https://m.place.naver.com/share?id=16870375&tabsPath=%2Fhome&appMode=detail,,,,129.2239502689421,35.219543287097565
302,갓포현,부산광역시 기장군 기장읍 연화리 136,기장군,기장읍,횟집,051 7212434,402711.0159,193301.094,,,,,,,4.0,리뷰 162개,https://goo.gl/maps/ea1VPsJVfdQbvhbK7,129.22421361715914,35.21851728893806
303,나루터연화,부산광역시 기장군 기장읍 연화리 143번지 3층 중 1층,기장군,기장읍,회집,051 7212415,402773.4925,193266.5801,3.5,22,https://place.map.kakao.com/1095981416#review,4.37,296,https://m.place.naver.com/share?id=37943506&tabsPath=%2Fhome&appMode=detail,4.2,리뷰 27개,https://goo.gl/maps/zjgpqC32MTp8NkNM8,129.22489082014866,35.218193821791466
304,만포장횟집,부산광역시 기장군 기장읍 연화리 145번지,기장군,기장읍,회집,051 721 1288,402762.8237,193256.5096,2.0,64,https://place.map.kakao.com/7863805#review,4.1,292,https://m.place.naver.com/share?id=11830543&tabsPath=%2Fhome&appMode=detail,3.2,리뷰 152개,https://goo.gl/maps/rKZAaSZ2t1b7mhkS6,129.2247712504606,35.21810527455106
305,동해대게직판장,부산광역시 기장군 기장읍 연화리 145번지,기장군,기장읍,회집,051 7222113,402762.8237,193256.5096,0.0,6,https://place.map.kakao.com/27339647#review,4.22,74,https://m.place.naver.com/share?id=973146061&tabsPath=%2Fhome&appMode=detail,,,,129.2247712504606,35.21810527455106
306,바다횟집,부산광역시 기장군 기장읍 연화리 147번지,기장군,기장읍,회집,051 7210016,402748.5401,193253.7726,4.9,4,https://place.map.kakao.com/16320737#review,,,,,,,129.22461381214157,35.21808350715127
307,동해횟집,부산광역시 기장군 기장읍 연화리 148-2번지,기장군,기장읍,회집,051 7212976,402728.0716,193246.6749,2.3,6,https://place.map.kakao.com/10284215#review,,,,,,,129.22438742089798,35.218023712827595
308,남풍횟집,부산광역시 기장군 기장읍 연화리 152번지,기장군,기장읍,회집,051 7212418,402720.1975,193252.9671,2.2,79,https://place.map.kakao.com/8882288#review,4.12,603,https://m.place.naver.com/share?id=16870492&tabsPath=%2Fhome&appMode=detail,3.5,리뷰 432개,https://goo.gl/maps/CUuQtJs7jpTrSyp47,129.22430254908986,35.21808197389211
309,극동횟집,"부산광역시 기장군 기장읍 연화리 153번지 ,156번지",기장군,기장읍,회집,051 721 6581,402711.5638,193248.6879,4.5,8,https://place.map.kakao.com/10223647#review,4.42,49,https://m.place.naver.com/share?id=37411071&tabsPath=%2Fhome&appMode=detail,4.4,리뷰 86개,https://goo.gl/maps/RTCgtfjHeEAHgL1V6,129.22420674019548,35.218045175419846
310,대성장횟집,부산광역시 기장군 기장읍 연화리 157번지,기장군,기장읍,회집,051 721 2419,402703.3918,193235.6221,4.3,10,https://place.map.kakao.com/7822734#review,4.36,140,https://m.place.naver.com/share?id=32148933&tabsPath=%2Fhome&appMode=detail,4.0,리뷰 110개,https://goo.gl/maps/7weR7RDmZB4fxYMo6,129.2241138375041,35.21792914591814
311,황금수산,부산광역시 기장군 기장읍 연화리 160번지,기장군,기장읍,횟집,051 722 0601,402682.1504,193230.7213,3.0,9,https://place.map.kakao.com/19237368#review,,,,3.6,리뷰 61개,https://goo.gl/maps/KuCnE4qvF4Joo8A47,129.22387950460092,35.21788929330906
312,대명장횟집,부산광역시 기장군 기장읍 연화리 169-2번지,기장군,기장읍,횟집,051 721 2437,402638.1019,193177.3985,,,,,,,3.7,리뷰 123개,https://goo.gl/maps/Vcmf7Z2ZYWqZTq83A,129.22338295497883,35.21741792253953
313,무진장횟집,부산광역시 기장군 기장읍 연화리 172-1번지,기장군,기장읍,회집,051 7212956,402625.307,193139.0311,3.9,13,https://place.map.kakao.com/10419530#review,4.32,429,https://m.place.naver.com/share?id=16870463&tabsPath=%2Fhome&appMode=detail,4.1,리뷰 609개,https://goo.gl/maps/yPynMCBzPrGgV72n7,129.22323309707755,35.217074942424055
314,정성장횟집,부산광역시 기장군 기장읍 연화리 291-2번지,기장군,기장읍,회집,051 7212417,402587.3888,193114.7725,5.0,1,https://place.map.kakao.com/9390891#review,,,,4.0,리뷰 28개,https://goo.gl/maps/cERrnJMCHMLEhKrx5,129.22281098020443,35.216864103194034
315,수평선횟집,부산광역시 기장군 기장읍 연화리 298-3번지 연화리 299,기장군,기장읍,회집,051 7213404,402473.7639,192931.3631,0.0,1,https://place.map.kakao.com/10534446#review,3.96,13,https://m.place.naver.com/share?id=16870325&tabsPath=%2Fhome&appMode=detail,4.4,리뷰 30개,https://goo.gl/maps/1AnGrwhrFg5KxUS47,129.22151888868834,35.21523511064856
316,맛단지,부산광역시 기장군 기장읍 연화리 366번지 곤지횟집,기장군,기장읍,회집,051 7222990,402329.1001,192866.2879,2.4,6,https://place.map.kakao.com/522828015#review,4.34,58,https://m.place.naver.com/share?id=32148930&tabsPath=%2Fhome&appMode=detail,5.0,리뷰 3개,https://goo.gl/maps/vGfFUA8dLKwnHwGx7,129.21991525605847,35.21467815230962
317,바다풍경횟집,"부산광역시 기장군 기장읍 연화리 374번지 (1,2층)",기장군,기장읍,회집,051 722 5575,402323.6899,192829.2622,5.0,1,https://place.map.kakao.com/27252554#review,4.44,49,https://m.place.naver.com/share?id=37203087&tabsPath=%2Fhome&appMode=detail,3.7,리뷰 3개,https://goo.gl/maps/fjk3DXr2TDmMeG4J7,129.21984679239776,35.21434576376525
318,기장복해녀 고고왕새우,부산광역시 기장군 기장읍 연화리 376-4,기장군,기장읍,횟집,,402288.629,192769.9667,,,,,,,,,,129.21944745790992,35.21381877030525
319,동부산활어회센타,부산광역시 기장군 기장읍 죽성리 120,기장군,기장읍,횟집,051 7212459,404422.0004,195912.6075,0.0,0,https://place.map.kakao.com/8331970#review,,,,4.0,리뷰 9개,https://goo.gl/maps/PobVmp6s8MvGvVzS9,129.24364005084934,35.24169107966668
320,어부횟집,부산광역시 기장군 기장읍 죽성리 148번지,기장군,기장읍,회집,051 723 0080,404533.6806,195728.2681,4.3,14,https://place.map.kakao.com/18553227#review,,,,4.0,리뷰 12개,https://goo.gl/maps/nqqSpX8zhcjZDDdU7,129.24482029848244,35.24000807180601
321,송미횟집,부산광역시 기장군 기장읍 죽성리 341번지,기장군,기장읍,회집,051 7214080,404288.1351,195551.6013,5.0,4,https://place.map.kakao.com/8451192#review,4.29,98,https://m.place.naver.com/share?id=16857235&tabsPath=%2Fhome&appMode=detail,4.0,리뷰 112개,https://goo.gl/maps/ZaNtqxG2qnS74J1K6,129.24208086587333,35.238466941384964
322,자연정,"부산광역시 기장군 기장읍 죽성리 344번지 (1,2층)",기장군,기장읍,회집,051 7214081,404272.2654,195567.8223,3.4,11,https://place.map.kakao.com/9373999#review,4.43,144,https://m.place.naver.com/share?id=20343555&tabsPath=%2Fhome&appMode=detail,3.8,리뷰 110개,https://goo.gl/maps/vaLv65qKRqeXWfVn6,129.24191067629678,35.238616266344785
323,동해횟집,부산광역시 기장군 기장읍 죽성리 350번지,기장군,기장읍,회집,051 7223780,404247.0152,195564.7983,2.3,6,https://place.map.kakao.com/10284215#review,,,,,,,129.24163273426657,35.23859417021553
324,육일횟집,부산광역시 기장군 기장읍 죽성리 352-1번지,기장군,기장읍,횟집,051 7212447,404233.4992,195586.4503,5.0,4,https://place.map.kakao.com/23879099#review,4.3,50,https://m.place.naver.com/share?id=16857213&tabsPath=%2Fhome&appMode=detail,4.0,리뷰 24개,https://goo.gl/maps/1XmfPKproWY8yvVA8,129.24148972933358,35.23879192988466
325,일미횟집,부산광역시 기장군 기장읍 죽성리 357번지 2층,기장군,기장읍,회집,051 7213096,404207.1195,195544.0512,3.5,11,https://place.map.kakao.com/8550396#review,4.29,152,https://m.place.naver.com/share?id=16857221&tabsPath=%2Fhome&appMode=detail,4.0,리뷰 155개,https://goo.gl/maps/jfxjWEWSuhWoUrJk9,129.24118962104413,35.23841543057676
326,토박이분식점,부산광역시 기장군 기장읍 죽성리 363번지,기장군,기장읍,횟집,051 7225436,404168.356,195568.506,0.0,0,https://place.map.kakao.com/2121523279#review,,,,,,,129.24077014799678,35.23864357020637
327,월전횟집,부산광역시 기장군 기장읍 죽성리 366번지,기장군,기장읍,횟집,051 7213262,404150.398,195589.0288,4.6,6,https://place.map.kakao.com/23878708#review,,,,,,,129.24057809723513,35.23883206246274
328,해진횟집,부산광역시 기장군 기장읍 죽성리 382-9번지,기장군,기장읍,회집,7227119,404088.6379,195371.6594,3.5,34,https://place.map.kakao.com/8163747#review,4.27,351,https://m.place.naver.com/share?id=11615319&tabsPath=%2Fhome&appMode=detail,3.5,리뷰 232개,https://goo.gl/maps/KPDmUmbELYbNUN1s7,129.2398462229929,35.23688688404327
329,신선횟집,부산광역시 기장군 기장읍 죽성리 388번지 382-8,기장군,기장읍,회집,051 7246022,404080.502,195400.3853,5.0,1,https://place.map.kakao.com/16926017#review,4.15,10,https://m.place.naver.com/share?id=16857201&tabsPath=%2Fhome&appMode=detail,,,,129.23976403037852,35.23714725884974
330,주식회사 기장끝집,"부산광역시 기장군 기장읍 죽성리 402-3 A동1층, B동1층",기장군,기장읍,횟집,051 722 4313,404155.2458,195135.7863,2.6,124,https://place.map.kakao.com/1255305672#review,,,,,,,129.2405189358418,35.23474894195742
331,기장원조수산횟집,부산광역시 기장군 기장읍 죽성리 409,기장군,기장읍,횟집,051 723 2845,404269.0446,195004.956,0.0,3,https://place.map.kakao.com/2052067344#review,,,,4.7,리뷰 3개,https://goo.gl/maps/rRMRn7zXrdZNPKUw5,129.24173568547948,35.23354746323012
332,보승횟집,부산광역시 기장군 일광면 동백리 21-1번지,기장군,일광면,회집,051 7273774,405406.3775,201320.4337,0.0,0,https://place.map.kakao.com/11072125#review,,,,3.1,리뷰 12개,https://goo.gl/maps/jEH5Y6mJsQX8ccRT8,129.25579768936757,35.29019498356594
333,풍년횟집,부산광역시 기장군 일광면 동백리 234-11,기장군,일광면,횟집,051 7270634,405353.317,200922.5717,5.0,3,https://place.map.kakao.com/10882047#review,4.18,11,https://m.place.naver.com/share?id=12037751&tabsPath=%2Fhome&appMode=detail,4.4,리뷰 60개,https://goo.gl/maps/gHATtfG1uvFn9xU76,129.2551153580321,35.2866225811912
334,한양횟집,부산광역시 기장군 일광면 동백리 234-7번지,기장군,일광면,회집,051 7271773,405328.3624,200924.813,0.0,0,https://place.map.kakao.com/13092015#review,4.13,20,https://m.place.naver.com/share?id=32149194&tabsPath=%2Fhome&appMode=detail,,,,129.2548418124086,35.286647882393645
335,동백횟집,부산광역시 기장군 일광면 동백리 28,기장군,일광면,횟집,051 7270391,405289.4175,201264.6562,4.7,7,https://place.map.kakao.com/10299957#review,,,,3.9,리뷰 96개,https://goo.gl/maps/WUyRQ9A8iJfmxUSA9,129.25449897972572,35.28971661087323
336,동백장횟집,부산광역시 기장군 일광면 동백리 51-1번지,기장군,일광면,회집,051 727 0391,405289.2693,201290.6667,4.7,7,https://place.map.kakao.com/10299957#review,,,,,,,129.25450385378386,35.28995090083234
337,문동슈퍼미니횟집,부산광역시 기장군 일광면 문동리 213번지 1층,기장군,일광면,회집,,405362.0773,203177.057,,,,,,,,,,129.25577554037596,35.30692542454993
338,별장횟집,부산광역시 기장군 일광면 문동리 4-1번지,기장군,일광면,회집,051 7275361,405580.0528,203773.0486,,,,,,,3.8,리뷰 6개,https://goo.gl/maps/miuZ2yuJ8RMAX8X26,129.2583197562856,35.31224835714387
339,청해횟집,부산광역시 기장군 일광면 문중리 119-1번지,기장군,일광면,회집,051 7270766,405270.3373,202858.9607,0.0,1,https://place.map.kakao.com/10839537#review,,,,4.2,리뷰 15개,https://goo.gl/maps/fD34YGHbGJuFqNLZ7,129.25468802958096,35.30407936381217
340,우리동네횟집,부산광역시 기장군 일광면 문중리 17번지,기장군,일광면,회집,051 7270617,405466.2962,202678.8359,4.7,1,https://place.map.kakao.com/27400658#review,4.25,42,https://m.place.naver.com/share?id=1369014695&tabsPath=%2Fhome&appMode=detail,3.9,리뷰 65개,https://goo.gl/maps/TPsFJSmM84q71E7WA,129.25679584331624,35.30241690419702
341,황금어장,부산광역시 기장군 일광면 문중리 24-3번지,기장군,일광면,회집,051 7270454,405423.3389,202557.4634,3.8,28,https://place.map.kakao.com/9609869#review,4.42,241,https://m.place.naver.com/share?id=11588187&tabsPath=%2Fhome&appMode=detail,4.1,리뷰 101개,https://goo.gl/maps/D32woJEp1r35uBdZ7,129.2562935233579,35.301332600016394
342,일광수산맛집,부산광역시 기장군 일광면 삼성리 115-1,기장군,일광면,횟집,051 984 0014,403203.3689,198247.0323,0.0,0,https://place.map.kakao.com/688436619#review,,,,4.2,리뷰 207개,https://goo.gl/maps/pVn6eYJKbkjCmqi67,129.23083813855126,35.26296372741271
343,서가산곰장어,부산광역시 기장군 일광면 삼성리 116-6,기장군,일광면,횟집,051 727 7157,403190.7548,198010.5419,5.0,8,https://place.map.kakao.com/27503820#review,4.16,16,https://m.place.naver.com/share?id=1955377834&tabsPath=%2Fhome&appMode=detail,4.0,리뷰 1개,https://goo.gl/maps/mMYHeZsJuybJT1J99,129.23064118873063,35.2608363246019
344,일광바다 횟집,부산광역시 기장군 일광면 삼성리 116-6 1층,기장군,일광면,횟집,051 724 7188,403190.7548,198010.5419,1.5,11,https://place.map.kakao.com/11805526#review,,,,4.0,리뷰 247개,https://goo.gl/maps/dCZRUEaNmfJLPu8aA,129.23064118873063,35.2608363246019
345,삼성장식당,부산광역시 기장군 일광면 삼성리 42-1번지,기장군,일광면,회집,051 721 4508,403180.4495,198282.085,,,,,,,,,,129.23059511758274,35.26328407566494
346,수림횟집,부산광역시 기장군 일광면 신평리 43-1번지,기장군,일광면,회집,051 7270441,405525.2721,201999.1891,3.3,4,https://place.map.kakao.com/9163916#review,4.6,36,https://m.place.naver.com/share?id=11831067&tabsPath=%2Fhome&appMode=detail,4.2,리뷰 95개,https://goo.gl/maps/K1kw4QarTRxARt6G9,129.25727360059656,35.29628368593442
347,우즈,부산광역시 기장군 일광면 이천리 132-13번지,기장군,일광면,회집,051 724 9888,405045.9985,199474.8887,3.0,167,https://place.map.kakao.com/797318373#review,4.44,"2,422",https://m.place.naver.com/share?id=1258906356&tabsPath=%2Fhome&appMode=detail,4.3,리뷰 191개,https://goo.gl/maps/4RFpGjcjffj1PTqp9,129.2513784263851,35.273647150425006
348,더비치횟집,"부산광역시 기장군 일광면 이천리 132-6번지 외2필지(132,145-14)",기장군,일광면,회집,051 721 2227,404978.0372,199327.9512,4.4,31,https://place.map.kakao.com/15281271#review,4.46,68,https://m.place.naver.com/share?id=32986114&tabsPath=%2Fhome&appMode=detail,3.7,리뷰 38개,https://goo.gl/maps/xMCpUvGmkmtV33cd9,129.25059539929535,35.272337675066815
349,해림장횟집,부산광역시 기장군 일광면 이천리 262-1 1층,기장군,일광면,횟집,051 721 3665,404132.2621,199266.4375,0.0,4,https://place.map.kakao.com/693942814#review,4.41,65,https://m.place.naver.com/share?id=31809463&tabsPath=%2Fhome&appMode=detail,4.2,리뷰 23개,https://goo.gl/maps/S3Mc8mzG9Q6hoczu8,129.24129153707716,35.271956271014176
350,은성횟집,부산광역시 기장군 일광면 이천리 291-1번지,기장군,일광면,회집,051 7214802,404106.9016,198889.3741,4.6,4,https://place.map.kakao.com/9342361#review,4.67,18,https://m.place.naver.com/share?id=16877732&tabsPath=%2Fhome&appMode=detail,4.2,리뷰 67개,https://goo.gl/maps/CVyVBrtaqo5tugzTA,129.2409193967253,35.268565429376274
351,해신초장,부산광역시 기장군 일광면 이천리 395-4번지 1~2층,기장군,일광면,회집,051 724 4131,403541.106,198475.6012,1.0,1,https://place.map.kakao.com/2074901491#review,3.99,54,https://m.place.naver.com/share?id=1692727333&tabsPath=%2Fhome&appMode=detail,3.0,리뷰 4개,https://goo.gl/maps/Gdb7MWFMhuWXSRuB7,129.23460345934902,35.264953828027835
352,고성왕도매횟집,부산광역시 기장군 일광면 이천리 811-7번지,기장군,일광면,회집,051 7227259,403407.0923,198745.9932,,,,,,,3.5,리뷰 4개,https://goo.gl/maps/iAMWPpfh3LidZ8c89,129.2331986926068,35.26741631662719
353,일광물회,부산광역시 기장군 일광면 이천리 874-10번지,기장군,일광면,회집,051 724 9204,403497.2694,198502.1415,3.4,5,https://place.map.kakao.com/658319820#review,,,,4.1,리뷰 121개,https://goo.gl/maps/XUUt2ns8M4NHLusJ8,129.23412863998968,35.26520176248477
354,해변횟집,부산광역시 기장군 일광면 이천리 874-8번지,기장군,일광면,회집,051 7217410,403472.8318,198505.5602,3.0,0,https://place.map.kakao.com/12146100#review,4.61,27,https://m.place.naver.com/share?id=16877884&tabsPath=%2Fhome&appMode=detail,,,,129.233861125703,35.26523751317597
355,무한정횟집,부산광역시 기장군 일광면 칠암리 10번지,기장군,일광면,회집,051 7273385,405454.0871,202349.7031,0.0,3,https://place.map.kakao.com/23336329#review,3.72,16,https://m.place.naver.com/share?id=32149229&tabsPath=%2Fhome&appMode=detail,,,,129.25657932437298,35.29945513542285
356,청호횟집,부산광역시 기장군 일광면 칠암리 1-10번지,기장군,일광면,회집,051 7270546,405426.5729,202517.835,0.0,0,https://place.map.kakao.com/16753035#review,4.43,46,https://m.place.naver.com/share?id=856290112&tabsPath=%2Fhome&appMode=detail,,,,129.2563191343395,35.30097503047683
357,울산해변횟집,부산광역시 기장군 일광면 칠암리 11-1,기장군,일광면,횟집,051 7271123,405443.1674,202345.6853,,,,,,,,,,129.25645835600267,35.299421190414705
358,골목횟집,부산광역시 기장군 일광면 칠암리 12-4번지,기장군,일광면,회집,,405423.0148,202327.7025,0.0,1,https://place.map.kakao.com/972789886#review,,,,,,,129.25623246122078,35.29926336627394
359,문화횟집,부산광역시 기장군 일광면 칠암리 1-2번지,기장군,일광면,회집,051 7271187,405427.6959,202506.8216,0.0,2,https://place.map.kakao.com/9768075#review,4.46,45,https://m.place.naver.com/share?id=32149234&tabsPath=%2Fhome&appMode=detail,4.1,리뷰 66개,https://goo.gl/maps/Bu3Ua2JgJdCfwJQf8,129.25632871530732,35.30087560987046
360,울산횟집,부산광역시 기장군 일광면 칠암리 1-3번지,기장군,일광면,회집,051 7274004,405428.8351,202495.1359,0.0,0,https://place.map.kakao.com/11175029#review,4.47,63,https://m.place.naver.com/share?id=1027451511&tabsPath=%2Fhome&appMode=detail,,,,129.25633830596996,35.30077013099056
361,칠암등대횟집,부산광역시 기장군 일광면 칠암리 15번지,기장군,일광면,회집,051 7275000,405455.0086,202324.3397,5.0,5,https://place.map.kakao.com/8094693#review,4.34,123,https://m.place.naver.com/share?id=12022532&tabsPath=%2Fhome&appMode=detail,3.8,리뷰 139개,https://goo.gl/maps/KsVnoikJuRuWH5GH7,129.25658309957868,35.29922651544963
362,칠암바다횟집,부산광역시 기장군 일광면 칠암리 1-5번지,기장군,일광면,회집,051 7270284,405430.8202,202472.9131,0.0,2,https://place.map.kakao.com/10396800#review,,,,4.1,리뷰 77개,https://goo.gl/maps/ZVbkoJyfUMgMjAYy5,129.25635455250418,35.30056957806311
363,칠암파도횟집,부산광역시 기장군 일광면 칠암리 1-6번지,기장군,일광면,회집,051 727 0702,405430.1571,202462.5034,4.5,2,https://place.map.kakao.com/24122106#review,4.65,43,https://m.place.naver.com/share?id=16878667&tabsPath=%2Fhome&appMode=detail,,,,129.25634466232805,35.30047596103385
364,부광횟집,부산광역시 기장군 일광면 칠암리 17-1번지,기장군,일광면,회집,051 7270090,405448.0046,202299.1292,0.0,3,https://place.map.kakao.com/9036688#review,,,,3.9,리뷰 52개,https://goo.gl/maps/kHW8KBLh9kmFH4jH6,129.25649984476436,35.299000898747764
365,돌샘횟집,부산광역시 기장군 일광면 칠암리 1-7번지,기장군,일광면,회집,051 7278772,405431.2764,202450.4639,5.0,3,https://place.map.kakao.com/10301959#review,,,,3.9,리뷰 19개,https://goo.gl/maps/dLEjykHsBxn8Bqsm6,129.25635394578129,35.30036729979589
366,일번지횟집,부산광역시 기장군 일광면 칠암리 1-8번지,기장군,일광면,회집,051 7275454,405433.466,202435.1489,3.9,32,https://place.map.kakao.com/11165596#review,,,,4.1,리뷰 406개,https://goo.gl/maps/nGDGmRWV3op4E3Qe6,129.25637416776132,35.30022891875462
367,산호횟집,부산광역시 기장군 일광면 칠암리 19,기장군,일광면,횟집,051 7270656,405451.5865,202284.8133,5.0,2,https://place.map.kakao.com/9112198#review,4.31,29,https://m.place.naver.com/share?id=1404834541&tabsPath=%2Fhome&appMode=detail,4.0,리뷰 28개,https://goo.gl/maps/cM7yZpAkpfueDUXS6,129.2565356119066,35.298871230210594
368,칠암대양횟집,부산광역시 기장군 일광면 칠암리 1-9,기장군,일광면,횟집,051 7270282,405425.3295,202526.7533,5.0,0,https://place.map.kakao.com/21355335#review,,,,3.7,리뷰 3개,https://goo.gl/maps/9jqM6CDV3DASsDEE9,129.25630770626566,35.30105560664655
369,차성횟집,부산광역시 기장군 일광면 칠암리 20번지,기장군,일광면,회집,051 7243328,405453.559,202272.3214,1.0,0,https://place.map.kakao.com/11083550#review,,,,4.7,리뷰 3개,https://goo.gl/maps/HrHf7A8AVPfpfN7H6,129.25655415490488,35.298758319422745
370,꺼먹동네,부산광역시 기장군 일광면 칠암리 23-1번지 (1층),기장군,일광면,회집,051 7271427,405442.4793,202251.9787,2.5,31,https://place.map.kakao.com/22710785#review,4.22,463,https://m.place.naver.com/share?id=10977643&tabsPath=%2Fhome&appMode=detail,3.6,리뷰 338개,https://goo.gl/maps/SeoRG9BFhdRASnWJ7,129.25642734423278,35.29857737987448
371,월화횟집,부산광역시 기장군 일광면 칠암리 26번지,기장군,일광면,회집,051 7270467,405439.3527,202212.9874,5.0,14,https://place.map.kakao.com/9322911#review,4.47,257,https://m.place.naver.com/share?id=16878733&tabsPath=%2Fhome&appMode=detail,4.1,리뷰 200개,https://goo.gl/maps/YR6PkzWrATdeDxaX9,129.256383237977,35.29822685315499
372,추가네횟집,부산광역시 기장군 일광면 칠암리 28번지,기장군,일광면,회집,051 721 8009,405464.4112,202223.1694,5.0,3,https://place.map.kakao.com/24703997#review,4.35,139,https://m.place.naver.com/share?id=16878681&tabsPath=%2Fhome&appMode=detail,4.2,리뷰 47개,https://goo.gl/maps/Wvyx1Z8vGn2JRoaS8,129.25666107259283,35.29831341397485
373,대가횟집,부산광역시 기장군 일광면 칠암리 29-1,기장군,일광면,횟집,051 7272176,405465.3344,202205.8501,5.0,7,https://place.map.kakao.com/10264611#review,4.53,174,https://m.place.naver.com/share?id=16878632&tabsPath=%2Fhome&appMode=detail,4.3,리뷰 124개,https://goo.gl/maps/CNvqWYu5kGE4hTm19,129.25666687973936,35.29815724136725
374,수중횟집,부산광역시 기장군 일광면 칠암리 30-1번지,기장군,일광면,회집,051 7271697,405461.7204,202195.5349,4.0,0,https://place.map.kakao.com/17124473#review,4.04,14,https://m.place.naver.com/share?id=20027866&tabsPath=%2Fhome&appMode=detail,5.0,리뷰 1개,https://goo.gl/maps/jYMRXzKVDiaCPGt77,129.2566245955544,35.29806508092826
375,칠암거북횟집,부산광역시 기장군 일광면 칠암리 3번지,기장군,일광면,회집,051 7270576,405438.2187,202416.2206,,,,,,,4.1,리뷰 86개,https://goo.gl/maps/num6DWeL9JU7BEMV6,129.2564216435356,35.30005746927681
376,칠암칠암횟집,부산광역시 기장군 일광면 칠암리 42번지,기장군,일광면,회집,051 7270591,405470.6821,202181.89,0.0,8,https://place.map.kakao.com/21314717#review,,,,,,,129.25671963097616,35.29794035168993
377,읍네집,부산광역시 기장군 일광면 칠암리 43번지,기장군,일광면,회집,051 7270660,405477.019,202171.7529,,,,4.48,186,https://m.place.naver.com/share?id=16878575&tabsPath=%2Fhome&appMode=detail,,,,129.25678670890514,35.29784775337836
378,동부횟집,부산광역시 기장군 일광면 칠암리 44번지,기장군,일광면,회집,051 7271383,405484.8181,202158.5963,0.0,4,https://place.map.kakao.com/10292967#review,4.54,82,https://m.place.naver.com/share?id=16878687&tabsPath=%2Fhome&appMode=detail,4.1,리뷰 79개,https://goo.gl/maps/htijvgopHushsDR18,129.25686909412332,35.29772766039179
379,금강횟집,부산광역시 기장군 일광면 칠암리 59번지 60-1,기장군,일광면,횟집,051 7270752,405490.0371,202091.3362,0.0,0,https://place.map.kakao.com/1327040119#review,,,,2.0,리뷰 1개,https://goo.gl/maps/wEmXwt6mjc6Lp6LN8,129.25690959225383,35.297120823370136
380,성림식당,부산광역시 기장군 일광면 칠암리 7번지,기장군,일광면,회집,051 7270510,405453.9916,202386.6932,0.0,1,https://place.map.kakao.com/10471735#review,4.59,63,https://m.place.naver.com/share?id=11862251&tabsPath=%2Fhome&appMode=detail,,,,129.25658753369964,35.299788299668016
381,동해횟집,부산광역시 기장군 일광면 칠암리 8번지,기장군,일광면,회집,051 7270665,405455.8078,202372.3676,3.0,12,https://place.map.kakao.com/10287335#review,,,,,,,129.25660390068904,35.29965890606796
382,청기와횟집,부산광역시 기장군 일광면 칠암리 9번지,기장군,일광면,회집,051 7274611,405445.4251,202363.2223,4.6,11,https://place.map.kakao.com/8108990#review,,,,4.3,리뷰 57개,https://goo.gl/maps/yRhAHS2DU6JiAb7L8,129.2564875481063,35.299578671007666
383,일광수산횟집,부산광역시 기장군 일광면 학리 214,기장군,일광면,횟집,051 7244961,404268.6373,197685.7922,3.8,20,https://place.map.kakao.com/10745117#review,4.3,114,https://m.place.naver.com/share?id=16877990&tabsPath=%2Fhome&appMode=detail,4.2,리뷰 207개,https://goo.gl/maps/99biXZk8YYoESjJQ6,129.24239657617215,35.25769247092568
384,호야참치,부산광역시 기장군 일광면 화전리 33-2번지,기장군,일광면,횟집,,403089.132,200936.9518,,,,,,,4.9,리뷰 8개,https://goo.gl/maps/Xy6wBNpDkEPFLCqH8,129.23024840965843,35.28721368951442
385,부산횟집,부산광역시 기장군 장안읍 월내리 132-57번지,기장군,장안읍,회집,051 727 2169,407041.2811,205388.6623,0.0,0,https://place.map.kakao.com/9029845#review,,,,,,,129.27478295861124,35.32649763776745
386,바다횟집,부산광역시 기장군 장안읍 월내리 132-78번지,기장군,장안읍,회집,051 7275350,407112.5772,205362.1856,4.0,1,https://place.map.kakao.com/8320944#review,,,,4.2,리뷰 28개,https://goo.gl/maps/kJcon1Gh8RgwieoF7,129.2755597720534,35.326244424727705
387,등대식당,부산광역시 기장군 장안읍 월내리 17-30 1층,기장군,장안읍,횟집,051 7275046,407190.194,205392.9398,0.0,1,https://place.map.kakao.com/8948159#review,,,,,,,129.2764205053774,35.32650532807667
388,마포면옥카페,부산광역시 기장군 장안읍 월내리 17-8번지,기장군,장안읍,회집,051 727 9006,407209.5856,205398.7955,0.0,2,https://place.map.kakao.com/976160663#review,4.59,94,https://m.place.naver.com/share?id=256930963&tabsPath=%2Fhome&appMode=detail,,,,129.27663508777246,35.326554048602745
389,"여기,스시",부산광역시 기장군 장안읍 월내리 257-8 정다운한의원,기장군,장안읍,일식,051 728 1019,407303.1508,205607.1329,5.0,2,https://place.map.kakao.com/2071375148#review,4.48,109,https://m.place.naver.com/share?id=1749187918&tabsPath=%2Fhome&appMode=detail,4.4,리뷰 110개,https://goo.gl/maps/grqMEcbR1noRf6yG6,129.27771600166116,35.32841097901802
390,장수물회,부산광역시 기장군 장안읍 임랑리 94-11번지 (1층),기장군,장안읍,회집,051 727 4922,405599.4297,204375.9235,2.8,24,https://place.map.kakao.com/60435245#review,,,,3.9,리뷰 204개,https://goo.gl/maps/uivbiKkHXwd3rmN19,129.2586837804468,35.31767403899514
391,해담회초밥,부산광역시 기장군 정관읍 달산리 1000-6,기장군,정관읍,일식,,398142.233,204220.2962,0.0,1,https://place.map.kakao.com/1273296065#review,,,,,,,129.17670082075463,35.317776874490825
392,통영한바다,부산광역시 기장군 정관읍 달산리 1020-8,기장군,정관읍,횟집,051 728 5211,398400.9381,204234.841,5.0,0,https://place.map.kakao.com/1314951923#review,4.47,35,https://m.place.naver.com/share?id=1106853592&tabsPath=%2Fhome&appMode=detail,5.0,리뷰 3개,https://goo.gl/maps/E3F9Mb8sNxssh9cc6,129.1795472402712,35.317856612223544
393,바로바로횟집,부산광역시 기장군 정관읍 달산리 990-7번지,기장군,정관읍,회집,051 728 8582,397950.7484,204242.162,5.0,5,https://place.map.kakao.com/1870293103#review,4.67,90,https://m.place.naver.com/share?id=1219991080&tabsPath=%2Fhome&appMode=detail,4.8,리뷰 17개,https://goo.gl/maps/8bd3gSuq25w4en617,129.1746018768156,35.31801171592191
394,통큰횟집,부산광역시 기장군 정관읍 매학리 711-6,기장군,정관읍,횟집,051 728 3858,398036.6383,204777.666,0.0,4,https://place.map.kakao.com/1739647600#review,,,,,,,129.1756750523371,35.32281788795932
395,미소야,부산광역시 기장군 정관읍 매학리 713-3번지 진우빌딩 102호,기장군,정관읍,일식,051 727 9003,397801.2386,204661.7615,,,,,,,,,,129.17306012365412,35.32182053146029
396,무모한초밥(정관점),부산광역시 기장군 정관읍 매학리 713-6 정관제일타워Ⅱ,기장군,정관읍,일식,051 727 5256,397873.6817,204631.5309,0.0,1,https://place.map.kakao.com/2003155355#review,,,,5.0,리뷰 1개,https://goo.gl/maps/RbqzBCZssLwVdugo6,129.17384894503553,35.32153392505433
397,통사시미 횟집,부산광역시 기장군 정관읍 매학리 714-12,기장군,정관읍,횟집,051 728 4124,397924.9097,204753.5705,5.0,5,https://place.map.kakao.com/1613151133#review,,,,,,,129.17444137492856,35.32262297625163
398,막썰어횟집,부산광역시 기장군 정관읍 매학리 715-4번지 1층,기장군,정관읍,회집,070 88848999,398025.0335,204739.0611,0.0,7,https://place.map.kakao.com/2045718064#review,,,,,,,129.1755381954852,35.32247247933802
399,스시마을,부산광역시 기장군 정관읍 매학리 716-3번지,기장군,정관읍,일식,051 727 8899,397971.5202,204693.1849,2.7,16,https://place.map.kakao.com/932832690#review,4.47,381,https://m.place.naver.com/share?id=1682338640&tabsPath=%2Fhome&appMode=detail,4.0,리뷰 52개,https://goo.gl/maps/Rj1qk5ZAttyoHZUV9,129.17493902750925,35.32206987352228
400,차칸초밥,부산광역시 기장군 정관읍 매학리 717-2,기장군,정관읍,일식,070 46472455,397942.1252,204602.9616,0.0,0,https://place.map.kakao.com/1922018600#review,,,,,,,129.17459420821865,35.32126306799635
401,스시조우정관점,부산광역시 기장군 정관읍 매학리 717-9번지 골든스카이 오피스텔 205호,기장군,정관읍,일식,051 721 1127,398054.0922,204691.539,3.0,2,https://place.map.kakao.com/27252445#review,,,,5.0,리뷰 1개,https://goo.gl/maps/9PCiCauGa7S6Fm3p7,129.17584606039864,35.32203870593177
402,시원대원횟집,부산광역시 기장군 정관읍 매학리 718-2번지,기장군,정관읍,회집,051 728 2479,397697.8416,204567.5858,5.0,1,https://place.map.kakao.com/26415914#review,4.31,29,https://m.place.naver.com/share?id=36010894&tabsPath=%2Fhome&appMode=detail,,,,129.1719011298845,35.32099274731599
403,향이네초장집,부산광역시 기장군 정관읍 매학리 719-1,기장군,정관읍,횟집,051 727 5542,397757.734,204518.8791,5.0,0,https://place.map.kakao.com/1305149172#review,4.28,20,https://m.place.naver.com/share?id=1254301576&tabsPath=%2Fhome&appMode=detail,,,,129.1725475672364,35.320542218936566
404,막썰어회도매센타,부산광역시 기장군 정관읍 매학리 719-1 미래안 전통상가,기장군,정관읍,횟집,051 727 6346,397757.734,204518.8791,0.0,0,https://place.map.kakao.com/61863413#review,,,,,,,129.1725475672364,35.320542218936566
405,바다향,"부산광역시 기장군 정관읍 매학리 748-6번지 테라스상가 401,402,403,404호",기장군,정관읍,일식,051 728 1165,398088.0775,204548.1624,3.0,10,https://place.map.kakao.com/1996823573#review,4.29,71,https://m.place.naver.com/share?id=38507577&tabsPath=%2Fhome&appMode=detail,3.6,리뷰 60개,https://goo.gl/maps/UYEFYkecAsX8hiqc6,129.17618490623158,35.32074061621603
406,히노아지 정관점,부산광역시 기장군 정관읍 매학리 750-16번지 1층,기장군,정관읍,일식,051 727 0694,398274.1134,204667.7595,2.7,17,https://place.map.kakao.com/27526057#review,,,,3.9,리뷰 47개,https://goo.gl/maps/sgvGvC9BnJD9XynL9,129.17825824363038,35.32178094797596
407,스시애,"부산광역시 기장군 정관읍 매학리 750-7번지 해오름오피스텔 112,113호",기장군,정관읍,일식,051 727 7020,398156.0337,204568.5441,4.3,21,https://place.map.kakao.com/24244986#review,4.58,347,https://m.place.naver.com/share?id=36139857&tabsPath=%2Fhome&appMode=detail,4.8,리뷰 6개,https://goo.gl/maps/YmKYZGz375hJQqKy5,129.17693662805894,35.32091073235932
408,차이나스시,부산광역시 기장군 정관읍 매학리 751-2,기장군,정관읍,일식,,398314.5546,204635.9684,,,,,,,,,,129.17869498328974,35.32148659735921
409,태경다찌,부산광역시 기장군 정관읍 매학리 761-13번지,기장군,정관읍,일식,051 727 3565,398319.4092,204508.7511,5.0,2,https://place.map.kakao.com/284473806#review,4.39,18,https://m.place.naver.com/share?id=1889292084&tabsPath=%2Fhome&appMode=detail,,,,129.178717563829,35.32033981900518
410,통큰바다횟집,부산광역시 기장군 정관읍 매학리 766-13번지,기장군,정관읍,회집,051 728 7621,398405.5954,204541.1104,0.0,4,https://place.map.kakao.com/65008722#review,4.86,22,https://m.place.naver.com/share?id=1356319708&tabsPath=%2Fhome&appMode=detail,5.0,리뷰 1개,https://goo.gl/maps/obh1MikYzH4Eakap9,129.17967251988875,35.3206141836673
411,청춘물회,부산광역시 기장군 정관읍 모전리 681 정관신도시 엘에이치 7단지 아파트,기장군,정관읍,횟집,051 727 7015,397090.1468,206483.7464,3.7,7,https://place.map.kakao.com/1891114248#review,4.41,61,https://m.place.naver.com/share?id=1494474593&tabsPath=%2Fhome&appMode=detail,,,,129.16568365365617,35.33837117779592
412,홍시미,부산광역시 기장군 정관읍 모전리 723번지 이지 더원1차 아파트,기장군,정관읍,일식,051 728 0223,396666.3412,206512.5173,,,,,,,,,,129.16103214539146,35.33871376554163
413,마구로 마구로,부산광역시 기장군 정관읍 모전리 738-3번지,기장군,정관읍,일식,051 728 8862,396832.1792,206086.5933,0.0,5,https://place.map.kakao.com/1859008583#review,,,,5.0,리뷰 1개,https://goo.gl/maps/hMq5ZbfeSgd4TfxKA,129.1627527007379,35.33484490410694
414,우럭만,부산광역시 기장군 정관읍 모전리 742-1번지 101호,기장군,정관읍,회집,,396981.483,206194.242,4.0,1,https://place.map.kakao.com/1290238325#review,,,,5.0,리뷰 1개,https://goo.gl/maps/vCGEWaDGCexBR4FY6,129.16441963437907,35.335785077062944
415,화나베,부산광역시 기장군 정관읍 방곡리 390-2번지,기장군,정관읍,일식,051 727 3370,399031.5324,205169.6758,2.0,98,https://place.map.kakao.com/1117476267#review,,,,,,,129.18670372203462,35.3261511658374
416,어촌횟집,부산광역시 기장군 정관읍 방곡리 398-2 106호,기장군,정관읍,횟집,051 728 2665,398894.7372,205019.3246,0.0,1,https://place.map.kakao.com/1148772967#review,4.41,38,https://m.place.naver.com/share?id=1157145616&tabsPath=%2Fhome&appMode=detail,,,,129.18516385896834,35.3248242047563
417,참치야 정관점,부산광역시 기장군 정관읍 방곡리 415-2번지,기장군,정관읍,일식,051 722 3782,398784.6173,204946.6828,0.0,0,https://place.map.kakao.com/627873251#review,4.45,37,https://m.place.naver.com/share?id=1358855573&tabsPath=%2Fhome&appMode=detail,,,,129.18393604155924,35.32419182902513
418,스시활,부산광역시 기장군 정관읍 용수리 1329-1번지 105호,기장군,정관읍,일식,051 728 4325,397364.1967,205093.3165,4.4,3,https://place.map.kakao.com/1497233605#review,4.52,52,https://m.place.naver.com/share?id=1533732513&tabsPath=%2Fhome&appMode=detail,4.7,리뷰 31개,https://goo.gl/maps/MwWiZTaYPkdLPyrS6,129.16836110819645,35.325793784475856
419,은성회포장,부산광역시 기장군 정관읍 용수리 1330번지,기장군,정관읍,회집,051 728 0787,397436.4002,205030.0678,0.0,0,https://place.map.kakao.com/757831208#review,4.31,24,https://m.place.naver.com/share?id=1988643119&tabsPath=%2Fhome&appMode=detail,4.0,리뷰 8개,https://goo.gl/maps/N6aoWojt6ffq7Wx39,129.16913940047996,35.32520986637244
420,오니기리와 이규동,부산광역시 기장군 정관읍 용수리 1336,기장군,정관읍,일식,051 727 8208,397679.7475,204794.8281,0.0,1,https://place.map.kakao.com/1879308715#review,,,,,,,129.17175707255475,35.323043049285644
421,만타스시31,부산광역시 기장군 정관읍 용수리 1387 정관동일스위트1차,기장군,정관읍,일식,051 728 9931,397218.0091,204903.2169,0.0,0,https://place.map.kakao.com/560552249#review,,,,2.5,리뷰 4개,https://goo.gl/maps/4bSphmWuE2mZ4p456,129.16670875586175,35.32411042319774
422,두울원,부산광역시 기장군 정관읍 용수리 604-9 1층,기장군,정관읍,일식,,397443.6229,205603.2962,5.0,0,https://place.map.kakao.com/814013274#review,4.66,101,https://m.place.naver.com/share?id=1825900859&tabsPath=%2Fhome&appMode=detail,,,,129.1693568545735,35.330371399452886
423,흑송,부산광역시 기장군 정관읍 용수리 623,기장군,정관읍,일식,,397461.9579,205501.076,5.0,0,https://place.map.kakao.com/1702288900#review,4.65,26,https://m.place.naver.com/share?id=1148432837&tabsPath=%2Fhome&appMode=detail,,,,129.1695337425407,35.329447102261895
424,새바다횟집,부산광역시 기장군 정관읍 용수리 638-3,기장군,정관읍,횟집,051 728 3503,397560.7103,205493.9576,0.0,0,https://place.map.kakao.com/11929854#review,4.44,16,https://m.place.naver.com/share?id=16885996&tabsPath=%2Fhome&appMode=detail,3.8,리뷰 45개,https://goo.gl/maps/jAexMRL17B9UcGsb8,129.1706173751776,35.329363486570294
425,막썰어횟집,부산광역시 기장군 철마면 고촌리 122-6번지,기장군,철마면,회집,,397659.7495,195460.0848,5.0,0,https://place.map.kakao.com/1799860132#review,,,,,,,129.1692915116581,35.23897015894462
426,막썰어횟집,부산광역시 남구 감만동 206-101번지,남구,감만동,회집,051 631 0787,390052.2228,181448.3489,0.0,0,https://place.map.kakao.com/25777910#review,,,,,,,129.0825452708102,35.1142286702435
427,경아네 산오징어,부산광역시 남구 감만동 89-18번지,남구,감만동,일식,051 6361170,389607.0854,181796.5981,3.2,1,https://place.map.kakao.com/20678786#review,,,,,,,129.07774527188917,35.11744940310127
428,우럭세상,부산광역시 남구 감만동 89-35번지,남구,감만동,일식,051 646 6040,389603.8489,181790.0611,0.0,0,https://place.map.kakao.com/25761045#review,,,,4.3,리뷰 15개,https://goo.gl/maps/J1iof5cGuKPbGAii7,129.0777082945382,35.117391128831066
429,아빠횟집,부산광역시 남구 대연동 1085-2,남구,대연동,횟집,051 6277841,390531.8389,183092.399,5.0,0,https://place.map.kakao.com/966617490#review,,,,4.0,리뷰 51개,https://goo.gl/maps/pSEc7zNxKEPedwZN6,129.08818122255246,35.128947073227835
430,그집 김치찌개&생선구이,부산광역시 남구 대연동 1130-1 김선생EM스쿨,남구,대연동,일식,,390389.7709,182940.4447,0.0,0,https://place.map.kakao.com/1425434267#review,,,,,,,129.0865886119015,35.12760518642725
431,오리가미스시,부산광역시 남구 대연동 1164-7번지 쌍용유도장,남구,대연동,일식,,390352.4023,182722.2482,5.0,3,https://place.map.kakao.com/1016798413#review,,,,4.2,리뷰 40개,https://goo.gl/maps/yRGCuUHbKXrbH9EX6,129.08612873029188,35.1256468203994
