,name,address,district,street,cate1,phone,x,y,카카오 평점,카카오 리뷰,카카오 URL,네이버 평점,네이버 리뷰,네이버 URL,구글 평점,구글 리뷰,구글 URL,lon,lat
0,처갓집양념통닭,부산광역시 강서구 강동동 112-4,강서구,강동동,호프/통닭,051 9721244,376351.931,192621.3502,5.0,0,https://place.map.kakao.com/18917567#review,,,,,,,128.9347348068175,35.21736923157279
1,맥시칸치킨,부산광역시 강서구 강동동 156-4번지 1층 일부,강서구,강동동,호프/통닭,051 973 7766,376241.3728,192755.1437,0.0,0,https://place.map.kakao.com/745922079#review,,,,,,,128.93354981059858,35.2185938927272
2,오뚜기통닭,부산광역시 강서구 강동동 93-3,강서구,강동동,호프/통닭,051 972 6170,376330.8855,192581.8321,0.0,0,https://place.map.kakao.com/9311340#review,,,,,,,128.93449533315027,35.21701693607236
3,국민김밥,부산광역시 강서구 구랑동 1207-8번지,강서구,구랑동,분식,051 9733999,368923.7863,182426.0634,0.0,1,https://place.map.kakao.com/969162993#review,3.99,67,https://m.place.naver.com/share?id=1007528822&tabsPath=%2Fhome&appMode=detail,4.0,리뷰 1개,https://goo.gl/maps/EmRDn3H8vzvbHcyF7,128.85110759827117,35.12679893352401
4,비갠후,부산광역시 강서구 녹산동 1328-2번지,강서구,녹산동,호프/통닭,051 973 1535,371207.5088,180732.6948,0.0,0,https://place.map.kakao.com/1625797053#review,4.48,33,https://m.place.naver.com/share?id=1803142275&tabsPath=%2Fhome&appMode=detail,,,,128.87579935492275,35.11115834074516
5,주연국수정식,부산광역시 강서구 대저1동 1692-7번지 1층,강서구,대저1동,분식,051 972 3992,377369.5987,192264.2784,0.0,0,https://place.map.kakao.com/26179733#review,,,,,,,128.9458289538068,35.21397342006444
6,치킨커플평강역점,부산광역시 강서구 대저1동 1727-2,강서구,대저1동,호프/통닭,051 972 7792,377388.5397,192327.498,0.0,0,https://place.map.kakao.com/1412417075#review,,,,4.5,리뷰 2개,https://goo.gl/maps/V15TmhirYLr5DM4FA,128.94605046633396,35.2145395725921
7,맘스터치 대저점,부산광역시 강서구 대저1동 1749-16번지,강서구,대저1동,분식,,377212.9372,192197.4782,0.0,1,https://place.map.kakao.com/872731688#review,,,,4.1,리뷰 8개,https://goo.gl/maps/CG1F8b97fbd5er9r8,128.94409498565872,35.21339932030701
8,네네치킨 강서구청점,부산광역시 강서구 대저1동 2328,강서구,대저1동,호프/통닭,051 831 4492,380401.209,192049.8391,1.0,0,https://place.map.kakao.com/179798356#review,,,,4.0,리뷰 1개,https://goo.gl/maps/ZGHJqK359dPEypSs5,128.979058261805,35.21150179845671
9,맛나식당,부산광역시 강서구 대저1동 2383-8번지,강서구,대저1동,분식,051 9716366,380489.5093,192462.8736,4.4,68,https://place.map.kakao.com/21425664#review,,,,,,,128.98011788484922,35.2152065763726
10,옛날통닭,부산광역시 강서구 대저1동 2388-13,강서구,대저1동,호프/통닭,,380429.8051,192253.2173,0.0,0,https://place.map.kakao.com/248349124#review,,,,,,,128.97941664786296,35.213328706686184
11,대교식당,부산광역시 강서구 대저2동 1234-1 1동,강서구,대저2동,분식,051 831 3783,378674.7449,190100.6615,0.0,0,https://place.map.kakao.com/514109940#review,4.56,17,https://m.place.naver.com/share?id=1640497792&tabsPath=%2Fhome&appMode=detail,4.0,리뷰 1개,https://goo.gl/maps/DKGihhhid83q1rGr7,128.95968613242607,35.19425182891116
12,처갓집양념치킨 공항점,부산광역시 강서구 대저2동 1557 해성스포렉스2층,강서구,대저2동,호프/통닭,051 971 9282,377732.8641,188880.9093,5.0,0,https://place.map.kakao.com/24972257#review,,,,,,,128.94908737338992,35.183430970851084
13,은마분식,부산광역시 강서구 대저2동 1557번지 2층(해성 스포렉스),강서구,대저2동,분식,051 972 1541,377732.8641,188880.9093,0.0,0,https://place.map.kakao.com/1266447469#review,,,,4.0,리뷰 490개,https://goo.gl/maps/roXc28rfv8uVaQ6U6,128.94908737338992,35.183430970851084
14,피자나라치킨공주 김해공항점,부산광역시 강서구 대저2동 1843-25번지 1층,강서구,대저2동,호프/통닭,051 832 5293,378086.5908,188542.5683,0.0,0,https://place.map.kakao.com/26865899#review,,,,5.0,리뷰 5개,https://goo.gl/maps/CqJjrdEhk3U84hLs5,128.9528956285244,35.18032052230873
15,우리동네꼬마김밥&국수,부산광역시 강서구 대저2동 1933-4번지,강서구,대저2동,분식,,378203.476,188460.2043,5.0,2,https://place.map.kakao.com/1850418742#review,4.59,123,https://m.place.naver.com/share?id=1120840611&tabsPath=%2Fhome&appMode=detail,,,,128.95416031511616,35.17955786068903
16,구이오감,부산광역시 강서구 대저2동 1933-4번지,강서구,대저2동,통닭(치킨),051 972 9282,378203.476,188460.2043,0.0,0,https://place.map.kakao.com/14091740#review,,,,4.3,리뷰 9개,https://goo.gl/maps/wRRwFzQqjRmZj6PQ6,128.95416031511616,35.17955786068903
17,옛날통닭과한방족발,부산광역시 강서구 대저2동 2013-1 1층일부호,강서구,대저2동,호프/통닭,051 973 1867,378174.5314,188436.5071,,,,,,,,,,128.95383762458852,35.179349518871646
18,웰빙떡볶이,부산광역시 강서구 대저2동 2015-2번지,강서구,대저2동,분식,,378108.5178,188491.7391,5.0,0,https://place.map.kakao.com/1983113699#review,4.48,22,https://m.place.naver.com/share?id=1128808253&tabsPath=%2Fhome&appMode=detail,,,,128.95312524668677,35.17985875650561
19,포스 펍,부산광역시 강서구 대저2동 2016-1번지,강서구,대저2동,호프/통닭,051 831 6680,378132.9499,188493.045,0.0,0,https://place.map.kakao.com/36242158#review,,,,,,,128.9533935957578,35.17986619295989
20,명성튀김,부산광역시 강서구 대저2동 2016-3번지,강서구,대저2동,분식,,378153.454,188483.057,0.0,0,https://place.map.kakao.com/1962074008#review,4.4,10,https://m.place.naver.com/share?id=1004123959&tabsPath=%2Fhome&appMode=detail,,,,128.95361641022123,35.1797725863495
21,대패집입니다,부산광역시 강서구 대저2동 2026-3번지,강서구,대저2동,통닭(치킨),051 972 9298,378038.8784,188509.2887,5.0,0,https://place.map.kakao.com/27489347#review,4.45,32,https://m.place.naver.com/share?id=37601180&tabsPath=%2Fhome&appMode=detail,4.8,리뷰 12개,https://goo.gl/maps/RKb6iMjXchiZxoc66,128.95236495190233,35.18002917921471
22,김해공항본까스델리&설빙,부산광역시 강서구 대저2동 2350-1번지 김해공항 국제선 격리 2층,강서구,대저2동,분식,051 974 0025,377286.9745,187706.9814,0.0,3,https://place.map.kakao.com/27235437#review,,,,,,,128.94394282091156,35.17293458165577
23,국수나무한상(김해공항점),"부산광역시 강서구 대저2동 2779-1번지 국내선, 1층",강서구,대저2동,분식,051 973 9515,377543.3507,187360.7515,,,,4.19,977,https://m.place.naver.com/share?id=1252266960&tabsPath=%2Fhome&appMode=detail,,,,128.94668111809875,35.169770419021425
24,용우동,부산광역시 강서구 대저2동 3150-4번지,강서구,대저2동,분식,051 941 0305,378066.9657,187075.7137,1.7,1,https://place.map.kakao.com/20684208#review,,,,3.5,리뷰 2개,https://goo.gl/maps/vvJQdJReggzujrBz5,128.95236404794684,35.16711017484456
25,토스트 먹는 여우,부산광역시 강서구 대저2동 3153-1번지 지원시설가동 105호,강서구,대저2동,분식,051 753 0507,378260.6686,186989.3854,,,,4.38,139,https://m.place.naver.com/share?id=1487084360&tabsPath=%2Fhome&appMode=detail,,,,128.95447038440827,35.166298205247976
26,종국이두마리치킨,부산광역시 강서구 대저2동 4416-3번지 1층,강서구,대저2동,호프/통닭,051 973 5588,377861.7,185346.453,,,,,,,,,,128.9497400990541,35.15156877361792
27,161맥도,부산광역시 강서구 대저2동 6155-3번지 A동,강서구,대저2동,호프/통닭,,377007.0924,183004.1941,,,,4.32,48,https://m.place.naver.com/share?id=1888842318&tabsPath=%2Fhome&appMode=detail,,,,128.93986541232852,35.13061943130333
28,서리의골목식당,부산광역시 강서구 동선동 1061-5번지 1층일부,강서구,동선동,분식,,367185.9529,174453.3387,5.0,0,https://place.map.kakao.com/1958459449#review,,,,,,,128.83044396020802,35.055262299684486
29,1호선치킨,부산광역시 강서구 동선동 1061-6번지,강서구,동선동,호프/통닭,051 972 4601,367173.883,174437.9772,5.0,1,https://place.map.kakao.com/2038852097#review,4.66,25,https://m.place.naver.com/share?id=1916897713&tabsPath=%2Fhome&appMode=detail,3.5,리뷰 4개,https://goo.gl/maps/xUB7fKp6SCXkJBhL9,128.83030863086827,35.05512590397666
30,노가리앤비어,부산광역시 강서구 명지동 1082-7번지,강서구,명지동,호프/통닭,,375144.2654,180277.401,0.0,1,https://place.map.kakao.com/1793465992#review,,,,,,,128.91886190075823,35.106380600517014
31,해운대31cm 해물칼국수 명지점,부산광역시 강서구 명지동 1670-3,강서구,명지동,호프/통닭,051 208 8289,375080.0,179319.0,5.0,6,https://place.map.kakao.com/42147183#review,4.51,155,https://m.place.naver.com/share?id=1322126008&tabsPath=%2Fhome&appMode=detail,,,,128.9179549535366,35.09775794664468
32,수미가칼국수,부산광역시 강서구 명지동 232-3,강서구,명지동,분식,051 2713352,375343.0446,180860.9923,4.0,12,https://place.map.kakao.com/21337806#review,,,,,,,128.9211644797038,35.111603357433886
33,월드치킨,부산광역시 강서구 명지동 3205-7번지,강서구,명지동,통닭(치킨),051 271 2300,376030.0222,180651.1028,0.0,0,https://place.map.kakao.com/9958959#review,,,,,,,128.92865118640424,35.109592855830165
34,행복한꽈배기,부산광역시 강서구 명지동 3211-6번지,강서구,명지동,통닭(치킨),051 271 2028,375987.773,180562.1597,0.0,1,https://place.map.kakao.com/554092736#review,,,,,,,128.92816913026056,35.108798987563056
35,티바 두마리 치킨,부산광역시 강서구 명지동 3229-27,강서구,명지동,통닭(치킨),051 271 2231,373452.4423,178225.6007,3.7,0,https://place.map.kakao.com/15582422#review,,,,5.0,리뷰 1개,https://goo.gl/maps/vmRyxJB9xwEWPHew9,128.8998862041022,35.08818906006077
36,네네치킨 명지점,부산광역시 강서구 명지동 3229-28번지 A동,강서구,명지동,통닭(치킨),051 204 4492,373470.2852,178225.9613,3.0,1,https://place.map.kakao.com/16242016#review,,,,,,,128.90008183745283,35.088189241278336
37,치킨더홈명지점,부산광역시 강서구 명지동 3229-29 103호,강서구,명지동,호프/통닭,051 207 9978,373490.4553,178226.5681,5.0,3,https://place.map.kakao.com/904009200#review,,,,,,,128.9003030283637,35.088191239990586
38,통독상회 6호점,부산광역시 강서구 명지동 3231 영어도시 퀸덤1차 상가222동 254호,강서구,명지동,호프/통닭,051 203 3040,373002.1416,177917.6231,0.0,0,https://place.map.kakao.com/801519215#review,4.5,105,https://m.place.naver.com/share?id=1406296986&tabsPath=%2Fhome&appMode=detail,,,,128.89488666862604,35.08549188587188
39,바삭클라스,부산광역시 강서구 명지동 3231 영어도시 퀸덤1차 상가동 211호,강서구,명지동,호프/통닭,051 204 8252,373002.1416,177917.6231,0.0,0,https://place.map.kakao.com/44426985#review,4.44,27,https://m.place.naver.com/share?id=1065533215&tabsPath=%2Fhome&appMode=detail,,,,128.89488666862604,35.08549188587188
40,옛날통닭,부산광역시 강서구 명지동 3231번지 영어도시 퀸덤1차 266호,강서구,명지동,호프/통닭,070 88851127,373002.1416,177917.6231,0.0,0,https://place.map.kakao.com/1991174144#review,,,,,,,128.89488666862604,35.08549188587188
41,비쎄븐비어(B7 Beer),부산광역시 강서구 명지동 3231번지 영어도시 퀸덤1차 상가(222)동 208호,강서구,명지동,호프/통닭,,373002.1416,177917.6231,,,,,,,,,,128.89488666862604,35.08549188587188
42,맥주여행,부산광역시 강서구 명지동 3231번지 영어도시 퀸덤1차 상가동 217호,강서구,명지동,호프/통닭,,373002.1416,177917.6231,4.0,1,https://place.map.kakao.com/680456035#review,,,,,,,128.89488666862604,35.08549188587188
43,감탄 오션시티점,부산광역시 강서구 명지동 3231번지 퀸덤1차링컨타운상가동 255호,강서구,명지동,분식,051 260 8155,373002.1416,177917.6231,2.7,1,https://place.map.kakao.com/11835741#review,4.55,209,https://m.place.naver.com/share?id=13579170&tabsPath=%2Fhome&appMode=detail,3.0,리뷰 1개,https://goo.gl/maps/oECzyU5mrpftKGCB9,128.89488666862604,35.08549188587188
44,정가집,부산광역시 강서구 명지동 3232 영어도시 퀸덤1차 323동 301-1호,강서구,명지동,분식,051 203 5790,373368.8681,177936.6064,0.0,0,https://place.map.kakao.com/2006113471#review,,,,,,,128.898909826847,35.085599964360405
45,비에이치씨(BHC) 명지오션시티점,부산광역시 강서구 명지동 3232번지 영어도시 퀸덤1차 상가(322)동 304호,강서구,명지동,통닭(치킨),051 271 2588,373368.8681,177936.6064,2.6,4,https://place.map.kakao.com/24954533#review,,,,4.0,리뷰 4개,https://goo.gl/maps/MPdTLVx4RUJ9BuWt5,128.898909826847,35.085599964360405
46,떡볶이&감자튀김,부산광역시 강서구 명지동 3237 103호,강서구,명지동,분식,051 205 9007,373486.3207,177505.9153,2.0,3,https://place.map.kakao.com/779012562#review,4.61,22,https://m.place.naver.com/share?id=1062826479&tabsPath=%2Fhome&appMode=detail,,,,128.90010699676685,35.0816998197657
47,비아999(VIA999) 명지점,부산광역시 강서구 명지동 3237-12번지 명호빌딩 104호,강서구,명지동,호프/통닭,051 207 0999,373513.4209,177393.4014,5.0,4,https://place.map.kakao.com/522522559#review,4.43,44,https://m.place.naver.com/share?id=432214709&tabsPath=%2Fhome&appMode=detail,,,,128.90038046066255,35.08068155881617
48,명지점 굽네치킨,부산광역시 강서구 명지동 3237-13,강서구,명지동,통닭(치킨),051 271 0055,373512.8914,177420.0777,2.0,2,https://place.map.kakao.com/8223492#review,,,,4.3,리뷰 4개,https://goo.gl/maps/MqET7MWkBfTDUgzn7,128.90038023664758,35.080921968254614
49,오븐에 꾸운 닭,부산광역시 강서구 명지동 3237-15 메트로시티 101호,강서구,명지동,통닭(치킨),051 293 5992,373511.8251,177473.4352,1.0,4,https://place.map.kakao.com/12698299#review,,,,,,,128.90037970973697,35.08140283250195
50,비턴,부산광역시 강서구 명지동 3237-15번지 201호,강서구,명지동,호프/통닭,051 271 6453,373511.8251,177473.4352,,,,,,,,,,128.90037970973697,35.08140283250195
51,응급실 국물떡볶이 부산 명지점,부산광역시 강서구 명지동 3237-2,강서구,명지동,분식,051 293 0911,373487.1072,177458.0952,3.0,1,https://place.map.kakao.com/636552287#review,,,,,,,128.90010561673458,35.08126888828756
52,베네치아,부산광역시 강서구 명지동 3237-3번지 101호,강서구,명지동,호프/통닭,,373487.4719,177439.8117,0.0,1,https://place.map.kakao.com/27118626#review,,,,3.0,리뷰 1개,https://goo.gl/maps/d94EZKWmCACFpDsk8,128.90010579039722,35.081104115272986
53,더착한분식&김밥&만두,부산광역시 강서구 명지동 3238-12 NC TOWER 105호,강서구,명지동,분식,051 203 3533,373508.7202,177626.7675,5.0,1,https://place.map.kakao.com/493006949#review,,,,4.1,리뷰 30개,https://goo.gl/maps/5RBU6iE91DfRBNqK9,128.90037775026784,35.08278468854127
54,명랑시대쌀핫도그,부산광역시 강서구 명지동 3238-14번지 104호,강서구,명지동,분식,051 204 2553,373507.6489,177680.1137,0.0,1,https://place.map.kakao.com/802487160#review,,,,4.7,리뷰 3개,https://goo.gl/maps/vzfhyEMopgeZEScMA,128.90037716668698,35.08326545171024
55,역전할머니맥주 명지오션점,부산광역시 강서구 명지동 3238-15번지 파빌리온 빌딩 105호,강서구,명지동,호프/통닭,,373507.1056,177706.7865,0.0,2,https://place.map.kakao.com/1759353813#review,4.58,180,https://m.place.naver.com/share?id=1547477063&tabsPath=%2Fhome&appMode=detail,,,,128.9003767910421,35.083505831893774
56,가마치통닭 오션시티점,부산광역시 강서구 명지동 3238-2 1층 104호,강서구,명지동,호프/통닭,051 208 9282,373481.8458,177718.121,5.0,0,https://place.map.kakao.com/526640783#review,,,,4.0,리뷰 10개,https://goo.gl/maps/5pPc7fybFUuHEYLw7,128.90010233010506,35.08361228321984
57,가마로강정명지오션시티점,부산광역시 강서구 명지동 3238-4번지 102호,강서구,명지동,호프/통닭,051 291 7292,373482.6558,177678.1091,0.0,2,https://place.map.kakao.com/661048370#review,,,,3.0,리뷰 2개,https://goo.gl/maps/imknWANBdNbL1bwZ7,128.90010283995798,35.083251689437326
58,더홀릭 명지점,부산광역시 강서구 명지동 3239,강서구,명지동,호프/통닭,,373576.0288,177767.8604,,,,,,,,,,128.90114492356594,35.08404417519308
59,추남비어,부산광역시 강서구 명지동 3239-12번지 103호,강서구,명지동,호프/통닭,051 2917486,373593.1804,177656.6872,,,,4.5,15,https://m.place.naver.com/share?id=1516120471&tabsPath=%2Fhome&appMode=detail,5.0,리뷰 1개,https://goo.gl/maps/ApsDz8oZ3kkZPfGV6,128.90130963187622,35.08303970162507
60,썬더치킨(명지1호점),"부산광역시 강서구 명지동 3239-14 광명빌딩 101,102호",강서구,명지동,호프/통닭,051 205 8592,373592.2668,177702.0837,5.0,0,https://place.map.kakao.com/26098380#review,4.3,123,https://m.place.naver.com/share?id=30879580&tabsPath=%2Fhome&appMode=detail,5.0,리뷰 2개,https://goo.gl/maps/PJdoXq7HKyUihGyv5,128.90130911863952,35.08344882119848
61,국수나무,부산광역시 강서구 명지동 3239-5,강서구,명지동,분식,051 293 1003,373568.7516,177628.0327,3.0,4,https://place.map.kakao.com/1211723027#review,,,,,,,128.90103591455969,35.082785763988525
62,신전떡볶이 명지오션시티점,부산광역시 강서구 명지동 3239-5번지 지봉빌딩 104호,강서구,명지동,분식,,373568.7516,177628.0327,3.5,4,https://place.map.kakao.com/1829101332#review,,,,,,,128.90103591455969,35.082785763988525
63,이승학돈까스명지점,부산광역시 강서구 명지동 3239-6번지 명지롯데프라자 101호,강서구,명지동,분식,051 293 4952,373569.291,177601.3609,3.0,6,https://place.map.kakao.com/26327072#review,4.53,214,https://m.place.naver.com/share?id=1166512924&tabsPath=%2Fhome&appMode=detail,4.4,리뷰 23개,https://goo.gl/maps/4DZddaCsP7K22P1s6,128.90103624583438,35.08254539351697
64,김가네 명지점,부산광역시 강서구 명지동 3239-7 서린프라자 103호,강서구,명지동,분식,051 205 9993,373570.2222,177568.3913,3.2,1,https://place.map.kakao.com/26932939#review,,,,4.1,리뷰 30개,https://goo.gl/maps/QFcXc6ncH3Dt38bz6,128.90103955337406,35.082248220788536
65,정우,부산광역시 강서구 명지동 3240-7 103호,강서구,명지동,호프/통닭,,373585.2916,177308.5135,0.0,0,https://place.map.kakao.com/26796009#review,,,,,,,128.90115033053937,35.07990447277029
66,바삭이치킨 오션시티점,"부산광역시 강서구 명지동 3240-7 명지청산오션타워 1충 112호, 113호",강서구,명지동,호프/통닭,051 202 3602,373585.2916,177308.5135,0.0,0,https://place.map.kakao.com/65397548#review,4.68,59,https://m.place.naver.com/share?id=1220585377&tabsPath=%2Fhome&appMode=detail,,,,128.90115033053937,35.07990447277029
67,동근이숯불두마리치킨명지점,부산광역시 강서구 명지동 3240-7번지 117호,강서구,명지동,호프/통닭,051 293 9700,373585.2916,177308.5135,0.0,0,https://place.map.kakao.com/1742451595#review,,,,,,,128.90115033053937,35.07990447277029
68,해피치킨,부산광역시 강서구 명지동 3240번지 세정프라자 109호,강서구,명지동,통닭(치킨),051 271 8292,373571.4809,177507.6088,5.0,0,https://place.map.kakao.com/12882888#review,4.38,25,https://m.place.naver.com/share?id=32016628&tabsPath=%2Fhome&appMode=detail,3.7,리뷰 3개,https://goo.gl/maps/evyREHPijEANVWNq8,128.901040631344,35.08170043417983
69,냠냠숯불두마리치킨,부산광역시 강서구 명지동 3242 엘크루 블루오션 C4동 116일부호,강서구,명지동,호프/통닭,,374106.5324,177465.9449,0.0,0,https://place.map.kakao.com/1342214823#review,4.5,35,https://m.place.naver.com/share?id=1997093110&tabsPath=%2Fhome&appMode=detail,,,,128.9068955638873,35.08123294178304
70,맛돌이,부산광역시 강서구 명지동 3242 엘크루 블루오션 C4동 B102호,강서구,명지동,호프/통닭,051 205 9289,374106.5324,177465.9449,,,,,,,,,,128.9068955638873,35.08123294178304
71,동키닭,부산광역시 강서구 명지동 3242 엘크루블루오션 C4동 B103호,강서구,명지동,호프/통닭,051 271 0758,374106.5324,177465.9449,0.0,0,https://place.map.kakao.com/354395601#review,,,,,,,128.9068955638873,35.08123294178304
72,꾸브라꼬숯불두마리치킨,부산광역시 강서구 명지동 3242번지 엘크루 블루오션 C4동 B105호,강서구,명지동,호프/통닭,051 293 9281,374106.5324,177465.9449,0.0,1,https://place.map.kakao.com/71302165#review,,,,,,,128.9068955638873,35.08123294178304
73,BBQ(비비큐) 명지점,부산광역시 강서구 명지동 3243번지 엘크루 블루오션 C2동 B103호,강서구,명지동,호프/통닭,,374065.3953,177664.1545,0.0,1,https://place.map.kakao.com/17408447#review,4.27,84,https://m.place.naver.com/share?id=37647991&tabsPath=%2Fhome&appMode=detail,,,,128.90648632774958,35.08302563850012
74,불스떡볶이,부산광역시 강서구 명지동 3243번지 엘크루 블루오션 근린생활시설(C2)동 B104호,강서구,명지동,분식,,374065.3953,177664.1545,0.0,0,https://place.map.kakao.com/164559724#review,,,,,,,128.90648632774958,35.08302563850012
75,치킨신드롬 명지점,부산광역시 강서구 명지동 3244번지 롯데캐슬상가 B동 102호,강서구,명지동,통닭(치킨),051 271 1922,373762.8422,177673.452,0.0,0,https://place.map.kakao.com/52112227#review,,,,,,,128.90317251464148,35.08316153330593
76,세븐치킨 명지점,부산광역시 강서구 명지동 3246 명지오션시티삼정그린코아 114동 B105호,강서구,명지동,호프/통닭,051 905 3337,373988.5128,177937.7198,,,,,,,,,,128.90570112942987,35.0855033505638
77,처갓집양념치킨 명지오션시티점,부산광역시 강서구 명지동 3246 명지오션시티삼정그린코아 114동 B106호,강서구,명지동,호프/통닭,051 294 0399,373988.5128,177937.7198,4.5,0,https://place.map.kakao.com/546542001#review,,,,,,,128.90570112942987,35.0855033505638
78,불숯불숯두마리치킨,부산광역시 강서구 명지동 3246 명지오션시티삼정그린코아 114동 지하1층 B109호 일부,강서구,명지동,호프/통닭,,373988.5128,177937.7198,5.0,2,https://place.map.kakao.com/495377484#review,,,,,,,128.90570112942987,35.0855033505638
79,명지샌드,부산광역시 강서구 명지동 3246 명지오션시티삼정그린코아 115동,강서구,명지동,분식,,373988.5128,177937.7198,5.0,1,https://place.map.kakao.com/1686812769#review,,,,,,,128.90570112942987,35.0855033505638
80,떡보킹 명지점,부산광역시 강서구 명지동 3246 명지오션시티삼정그린코아 115동,강서구,명지동,분식,,373988.5128,177937.7198,0.0,1,https://place.map.kakao.com/1060709028#review,,,,4.1,리뷰 30개,https://goo.gl/maps/qfkEZTyewQ1buxn99,128.90570112942987,35.0855033505638
81,오늘도토스트,부산광역시 강서구 명지동 3246번지 삼정그린코아 115동 B102호,강서구,명지동,분식,,373988.5128,177937.7198,0.0,1,https://place.map.kakao.com/1957363307#review,4.7,28,https://m.place.naver.com/share?id=225222083&tabsPath=%2Fhome&appMode=detail,,,,128.90570112942987,35.0855033505638
82,닭쟁이피자쟁이,부산광역시 강서구 명지동 3248-10,강서구,명지동,호프/통닭,051 292 9494,374211.6904,178217.607,0.0,0,https://place.map.kakao.com/907439396#review,4.63,34,https://m.place.naver.com/share?id=1524712314&tabsPath=%2Fhome&appMode=detail,,,,128.9082058472903,35.08798624944893
83,호식이두마리치킨 명지점,부산광역시 강서구 명지동 3250-15,강서구,명지동,호프/통닭,051 291 9282,374187.6928,178137.6771,0.0,3,https://place.map.kakao.com/1427352745#review,,,,,,,128.90792604958355,35.08727033292802
84,청춘컴패니,부산광역시 강서구 명지동 3250-15,강서구,명지동,분식,,374187.6928,178137.6771,0.0,0,https://place.map.kakao.com/1197965598#review,,,,,,,128.90792604958355,35.08727033292802
85,명지가야밀면,부산광역시 강서구 명지동 3251-4번지,강서구,명지동,분식,051 205 2145,374269.3899,178194.1459,3.3,9,https://place.map.kakao.com/15672037#review,4.27,199,https://m.place.naver.com/share?id=21495051&tabsPath=%2Fhome&appMode=detail,,,,128.9088332987748,35.08776493366018
86,지코바치킨 명지1호점,부산광역시 강서구 명지동 3251-8번지 1층,강서구,명지동,호프/통닭,051 208 8282,374263.7193,178162.2309,0.0,2,https://place.map.kakao.com/1702536755#review,4.53,127,https://m.place.naver.com/share?id=1285917499&tabsPath=%2Fhome&appMode=detail,,,,128.9087644442667,35.08747840249724
87,멕시카나치킨(명지국제신도시점),부산광역시 강서구 명지동 3252-5 1층,강서구,명지동,호프/통닭,051 208 3015,374223.8279,178122.4375,0.0,4,https://place.map.kakao.com/429487663#review,4.43,27,https://m.place.naver.com/share?id=1659420065&tabsPath=%2Fhome&appMode=detail,,,,128.90831888234766,35.08712680663498
88,구포촌국수,부산광역시 강서구 명지동 3253-12번지,강서구,명지동,분식,051 271 6999,374203.8515,178097.0326,0.0,6,https://place.map.kakao.com/19636860#review,4.38,142,https://m.place.naver.com/share?id=32016659&tabsPath=%2Fhome&appMode=detail,,,,128.90809460950123,35.086901391965064
89,대동할매국수,부산광역시 강서구 명지동 3253-7번지,강서구,명지동,분식,051 205 6900,374145.3539,178095.8597,5.0,7,https://place.map.kakao.com/12893057#review,4.31,229,https://m.place.naver.com/share?id=19562012&tabsPath=%2Fhome&appMode=detail,4.2,리뷰 191개,https://goo.gl/maps/Wpcfj58WmUSzPNNx5,128.90745324331465,35.08690092271648
90,교촌치킨명지신도시점,부산광역시 강서구 명지동 3256-5,강서구,명지동,통닭(치킨),051 271 7725,374094.6609,177982.1453,3.0,1,https://place.map.kakao.com/305341195#review,,,,3.5,리뷰 6개,https://goo.gl/maps/kK7pchZ1LC5VPuaj6,128.90687379260004,35.08588525734751
91,정선곤드레생칼국수,부산광역시 강서구 명지동 3259-4,강서구,명지동,분식,051 271 6789,374209.5383,177984.9198,1.0,4,https://place.map.kakao.com/1438307628#review,4.33,123,https://m.place.naver.com/share?id=1590180652&tabsPath=%2Fhome&appMode=detail,,,,128.90813338893128,35.08589042670113
92,윤푸드,부산광역시 강서구 명지동 3260-13번지,강서구,명지동,호프/통닭,051 293 9799,374179.9984,177943.9632,,,,,,,,,,128.90780104243842,35.08552656258353
93,동키치킨 명지점,부산광역시 강서구 명지동 3260-15,강서구,명지동,호프/통닭,051 271 0077,374155.184,177943.4682,0.0,2,https://place.map.kakao.com/1725517021#review,,,,,,,128.90752898308264,35.08552638600846
94,자가치카,부산광역시 강서구 명지동 3261-16,강서구,명지동,통닭(치킨),051 405 9729,374227.5829,177877.6074,0.0,3,https://place.map.kakao.com/26206976#review,4.64,105,https://m.place.naver.com/share?id=35855503&tabsPath=%2Fhome&appMode=detail,4.5,리뷰 16개,https://goo.gl/maps/wYBMz8oKGbqLLKsq8,128.9083086114224,35.08492057292939
95,이도비어 부산명지점,부산광역시 강서구 명지동 3261-19,강서구,명지동,호프/통닭,,374228.368,177838.0003,0.0,0,https://place.map.kakao.com/928070139#review,,,,,,,128.90830889700118,35.084563631337964
96,피자나라치킨공주 명지오션점,부산광역시 강서구 명지동 3263-1,강서구,명지동,호프/통닭,051 201 1801,374181.5361,177878.7245,2.0,1,https://place.map.kakao.com/13028802#review,,,,3.9,리뷰 14개,https://goo.gl/maps/y4rmYWcDffNFLgLS8,128.9078041961827,35.08493858518134
97,착한가마솥감자탕족발,부산광역시 강서구 명지동 3264-8번지,강서구,명지동,호프/통닭,512942344,374147.9786,177890.2876,0.0,0,https://place.map.kakao.com/798413763#review,,,,,,,128.90743885018503,35.08504854446768
98,이조안동찜닭,부산광역시 강서구 명지동 3265번지,강서구,명지동,호프/통닭,051 291 9234,374070.4818,177917.3036,0.0,1,https://place.map.kakao.com/1684139537#review,,,,,,,128.90659519148443,35.08530529248479
99,정쉐프 탕수육,부산광역시 강서구 명지동 3266-1,강서구,명지동,호프/통닭,051 271 7533,374083.4586,177876.7591,0.0,0,https://place.map.kakao.com/628664990#review,,,,,,,128.9067289027885,35.08493780295138
100,승원수제바베큐,부산광역시 강서구 명지동 3325 스위트팰리스 상가동 108호,강서구,명지동,호프/통닭,051 202 5592,375031.5495,180581.9411,0.0,12,https://place.map.kakao.com/1152827062#review,4.5,35,https://m.place.naver.com/share?id=1292245166&tabsPath=%2Fhome&appMode=detail,5.0,리뷰 5개,https://goo.gl/maps/8HmM1vLc4QP67BCK6,128.91769060529157,35.10914363809871
101,홍떡볶이,부산광역시 강서구 명지동 3325번지 스위트팰리스 상가동 111호,강서구,명지동,분식,051 292 1155,375031.5495,180581.9411,0.0,0,https://place.map.kakao.com/2030508123#review,,,,,,,128.91769060529157,35.10914363809871
102,꼬김스,부산광역시 강서구 명지동 3325번지 스위트팰리스 상가동 114호,강서구,명지동,분식,051 207 2828,375031.5495,180581.9411,4.2,3,https://place.map.kakao.com/1891358949#review,4.38,123,https://m.place.naver.com/share?id=1056066466&tabsPath=%2Fhome&appMode=detail,,,,128.91769060529157,35.10914363809871
103,인생닭강정 명지점,부산광역시 강서구 명지동 3328 명지 협성휴포레,강서구,명지동,호프/통닭,,375000.3849,180279.6001,0.0,1,https://place.map.kakao.com/166831763#review,4.24,19,https://m.place.naver.com/share?id=1249595654&tabsPath=%2Fhome&appMode=detail,,,,128.91728510304884,35.10642539166711
104,씨스터떡볶이 명지본점,부산광역시 강서구 명지동 3328 명지 협성휴포레 302동 205호,강서구,명지동,호프/통닭,,375000.3849,180279.6001,0.0,1,https://place.map.kakao.com/199726554#review,4.59,28,https://m.place.naver.com/share?id=1169369165&tabsPath=%2Fhome&appMode=detail,,,,128.91728510304884,35.10642539166711
105,명지닭집,부산광역시 강서구 명지동 3328 명지협성휴포레 306동 606호,강서구,명지동,호프/통닭,051 271 8593,375000.3849,180279.6001,3.7,3,https://place.map.kakao.com/1435929228#review,,,,,,,128.91728510304884,35.10642539166711
106,BHC 명지국제점,부산광역시 강서구 명지동 3328번지 명지 협성휴포레 303동 307호,강서구,명지동,호프/통닭,051 202 3392,375000.3849,180279.6001,2.6,0,https://place.map.kakao.com/185767218#review,,,,,,,128.91728510304884,35.10642539166711
107,진짜치킨떡볶이,부산광역시 강서구 명지동 3328번지 명지 협성휴포레 304동 지하1층 406호,강서구,명지동,분식,,375000.3849,180279.6001,0.0,8,https://place.map.kakao.com/236816166#review,4.59,52,https://m.place.naver.com/share?id=1907794887&tabsPath=%2Fhome&appMode=detail,5.0,리뷰 1개,https://goo.gl/maps/gTaHnsiTVnooLTG98,128.91728510304884,35.10642539166711
108,바사기,부산광역시 강서구 명지동 3334-2번지 1층 103호,강서구,명지동,분식,051 970 6838,375392.4996,180075.618,0.0,1,https://place.map.kakao.com/507341546#review,,,,,,,128.92154040825986,35.1045196843101
109,통독상회 5호점,부산광역시 강서구 명지동 3343 명지2차 금강펜테리움 센트럴파크 211동 104호,강서구,명지동,호프/통닭,051 202 9317,374968.8472,179973.2768,,,,4.54,14,https://m.place.naver.com/share?id=1666762060&tabsPath=%2Fhome&appMode=detail,,,,128.9168747013316,35.103671331776965
110,깻잎두마리치킨 명지점,부산광역시 강서구 명지동 3347 금강펜테리움 센트럴파크 3차 314동 B117호,강서구,명지동,분식,,375198.0631,179954.4398,,,,,,,,,,128.919383369992,35.10346184287593
111,돈치킨 명지국제신도시점,부산광역시 강서구 명지동 3347번지 금강펜테리움 센트럴파크 3차 313상가동 111호,강서구,명지동,호프/통닭,051 271 7006,375198.0631,179954.4398,0.0,1,https://place.map.kakao.com/705694918#review,,,,,,,128.919383369992,35.10346184287593
112,가마치옛날통닭,부산광역시 강서구 명지동 3354번지 명지1차 금강펜테리움 센트럴파크 근린생활시설1동 103호,강서구,명지동,호프/통닭,051 292 6699,374925.2347,179549.43,,,,4.6,83,https://m.place.naver.com/share?id=1066249570&tabsPath=%2Fhome&appMode=detail,,,,128.9163071712467,35.099860643702165
113,신참떡볶이 부산명지점,부산광역시 강서구 명지동 3357-1 부산명지지구아이메디컬 103호,강서구,명지동,분식,051 205 5553,374819.1867,179407.0977,,,,,,,,,,128.91511471460194,35.098596818168744
114,이다정 김밥&칼국수,부산광역시 강서구 명지동 3357-1번지 아이메디컬 105호,강서구,명지동,분식,051 271 8807,374819.1867,179407.0977,4.8,5,https://place.map.kakao.com/1230443641#review,4.29,138,https://m.place.naver.com/share?id=1525467632&tabsPath=%2Fhome&appMode=detail,3.6,리뷰 9개,https://goo.gl/maps/EQLRow9JH325juDM7,128.91511471460194,35.098596818168744
115,부엌19.83 명지점,부산광역시 강서구 명지동 3357-2 더 스퀘어 109호,강서구,명지동,분식,,374846.3635,179403.949,5.0,2,https://place.map.kakao.com/384234108#review,4.31,16,https://m.place.naver.com/share?id=1351653548&tabsPath=%2Fhome&appMode=detail,4.4,리뷰 5개,https://goo.gl/maps/nCsEtQrMuZAkBU5P8,128.9154119430088,35.098563742244565
116,고래맥주창고,부산광역시 강서구 명지동 3357-3,강서구,명지동,호프/통닭,,374874.0447,179399.726,0.0,1,https://place.map.kakao.com/783417355#review,4.7,42,https://m.place.naver.com/share?id=1188694007&tabsPath=%2Fhome&appMode=detail,,,,128.91571447337927,35.09852090023353
117,조춘자삼형제만두,부산광역시 강서구 명지동 3357-6 미주프라자 109호,강서구,명지동,호프/통닭,051 294 0017,374957.7283,179392.3781,,,,,,,,,,128.91663020060778,35.09844019424137
118,썬더치킨 명지국제신도시점,부산광역시 강서구 명지동 3357-7 109호,강서구,명지동,호프/통닭,051 202 8986,374986.5255,179389.3499,0.0,2,https://place.map.kakao.com/2033743394#review,4.4,64,https://m.place.naver.com/share?id=1144306434&tabsPath=%2Fhome&appMode=detail,5.0,리뷰 2개,https://goo.gl/maps/rQDaipdog2rQi6XR6,128.9169452146964,35.09840791905895
119,분식은내운명,부산광역시 강서구 명지동 3358-1번지 명지국제타워 1동 107호,강서구,명지동,분식,051 207 7470,375045.3001,179383.1632,2.5,2,https://place.map.kakao.com/1309114983#review,4.29,326,https://m.place.naver.com/share?id=1690009482&tabsPath=%2Fhome&appMode=detail,3.6,리뷰 9개,https://goo.gl/maps/XxadqYbXSuyZvSLU6,128.91758815094536,35.09834198763161
120,김밥일번지 명지점,부산광역시 강서구 명지동 3358-1번지 명지국제타워 1동 112호,강서구,명지동,분식,051 205 8855,375045.3001,179383.1632,3.0,0,https://place.map.kakao.com/1921841268#review,4.39,503,https://m.place.naver.com/share?id=1979256412&tabsPath=%2Fhome&appMode=detail,,,,128.91758815094536,35.09834198763161
121,오드리,부산광역시 강서구 명지동 3358-1번지 명지국제타워 1동 202호,강서구,명지동,호프/통닭,,375045.3001,179383.1632,0.0,0,https://place.map.kakao.com/25550297#review,,,,,,,128.91758815094536,35.09834198763161
122,푸라닭 부산국제신도시점,부산광역시 강서구 명지동 3358-2 1동 107호,강서구,명지동,호프/통닭,051 207 9206,375083.6893,179378.1346,1.0,0,https://place.map.kakao.com/1982272196#review,,,,,,,128.91800788174174,35.09829002432233
123,맘스터치 명지국제신도시점,부산광역시 강서구 명지동 3358-2 티에스스퀘어 105호,강서구,명지동,패스트푸드,051 201 2011,375083.6893,179378.1346,2.8,1,https://place.map.kakao.com/1382328915#review,,,,3.9,리뷰 75개,https://goo.gl/maps/TRXU2TmJ8NLTVeEx5,128.91800788174174,35.09829002432233
124,동대문엽기떡볶이 명지점,부산광역시 강서구 명지동 3358-4번지 기유타워 106호,강서구,명지동,분식,,375139.3969,179373.2791,2.0,3,https://place.map.kakao.com/779012562#review,,,,,,,128.9186174791572,35.09823661205131
125,화오뎅&떡볶이,부산광역시 강서구 명지동 3361 에일린의뜰 상가동 104호,강서구,명지동,분식,051 293 3383,375153.1293,179525.8739,0.0,4,https://place.map.kakao.com/869885015#review,4.19,169,https://m.place.naver.com/share?id=1205627776&tabsPath=%2Fhome&appMode=detail,,,,128.9188002451179,35.099608887289165
126,후라이드참잘하는집,부산광역시 강서구 명지동 3361 에일린의뜰 상가동 1층 111호일부,강서구,명지동,호프/통닭,051 205 9988,375153.1293,179525.8739,0.0,2,https://place.map.kakao.com/209044136#review,,,,,,,128.9188002451179,35.099608887289165
127,치킨신드롬 명지국제신도시점,부산광역시 강서구 명지동 3363-6,강서구,명지동,호프/통닭,051 294 8254,375479.3303,180007.6234,0.0,0,https://place.map.kakao.com/680738910#review,,,,,,,128.9224778516473,35.103892046860416
128,리얼펍 명지국제신도시점,부산광역시 강서구 명지동 3378-5번지 더엠 1층일부호,강서구,명지동,호프/통닭,,375570.9586,179948.4536,0.0,2,https://place.map.kakao.com/1580148659#review,,,,,,,128.9234697405929,35.10334306582137
129,돈앤닭,부산광역시 강서구 명지동 3395-5 3층 301호 일부,강서구,명지동,호프/통닭,,375408.5169,179343.536,0.0,0,https://place.map.kakao.com/677193199#review,,,,,,,128.9215610634902,35.0979219057656
130,쌀통닭 명지국제점,부산광역시 강서구 명지동 3395-5 팔봉프라자1동 301-8호,강서구,명지동,호프/통닭,051 203 5235,375408.5169,179343.536,0.0,0,https://place.map.kakao.com/62987686#review,,,,,,,128.9215610634902,35.0979219057656
131,무봤나촌닭 명지점,부산광역시 강서구 명지동 3395-6 1층 108호,강서구,명지동,호프/통닭,,375433.3892,179340.9211,0.0,3,https://place.map.kakao.com/877217062#review,,,,3.6,리뷰 9개,https://goo.gl/maps/ASfeLbGqk1zwmcLH8,128.921833139107,35.09789402375754
132,옛날집,부산광역시 강서구 명지동 3395-6 지봉빌딩1 106호,강서구,명지동,호프/통닭,051 205 0401,375433.3892,179340.9211,0.0,0,https://place.map.kakao.com/21334071#review,,,,,,,128.921833139107,35.09789402375754
133,통독상회 4호점,부산광역시 강서구 명지동 3399 LH오션타운 상가동 101호,강서구,명지동,호프/통닭,051 206 8471,374437.8777,179267.0016,0.0,1,https://place.map.kakao.com/1798240134#review,,,,,,,128.9109055932015,35.097400763659884
134,요와(yowa),부산광역시 강서구 명지동 3399번지 LH오션타운 상가동 104호,강서구,명지동,호프/통닭,,374437.8777,179267.0016,,,,,,,,,,128.9109055932015,35.097400763659884
135,치킨고(GO),부산광역시 강서구 명지동 3400번지 중흥S-클래스 프라디움 근린생활시설-1동 103호,강서구,명지동,호프/통닭,051 918 4949,374655.1594,179240.8211,,,,,,,,,,128.91328173244872,35.09712731565367
136,자갈치브라더스 부산명지국제신도시점,부산광역시 강서구 명지동 3400번지 중흥S-클래스 프라디움 제지층 104호,강서구,명지동,호프/통닭,,374655.1594,179240.8211,0.0,7,https://place.map.kakao.com/1010092696#review,4.47,89,https://m.place.naver.com/share?id=1701081731&tabsPath=%2Fhome&appMode=detail,5.0,리뷰 1개,https://goo.gl/maps/BuHzNERUVwvwJqZz5,128.91328173244872,35.09712731565367
137,너를위한치킨,부산광역시 강서구 명지동 3404번지 더 에듀 팰리스 부영 상가1동 102호,강서구,명지동,호프/통닭,051 292 7779,374487.9308,178988.2335,0.0,4,https://place.map.kakao.com/272438898#review,4.55,300,https://m.place.naver.com/share?id=1525047135&tabsPath=%2Fhome&appMode=detail,3.9,리뷰 14개,https://goo.gl/maps/nmgotUERbSTBJVnd8,128.91139556247785,35.094880794860984
138,엠케이비어(이래진족),부산광역시 강서구 명지동 3412-2,강서구,명지동,호프/통닭,051 292 2133,374855.2625,179326.1111,,,,,,,,,,128.9154930693199,35.09786099061615
139,지코바양념치킨 명지국제신도시점,부산광역시 강서구 명지동 3412-2 116호,강서구,명지동,호프/통닭,051 294 9337,374855.2625,179326.1111,,,,4.6,120,https://m.place.naver.com/share?id=1947353601&tabsPath=%2Fhome&appMode=detail,,,,128.9154930693199,35.09786099061615
140,굽네치킨 명지국제신도시,부산광역시 강서구 명지동 3412-2 정우빌딩2차 114호,강서구,명지동,호프/통닭,051 292 9482,374855.2625,179326.1111,1.0,3,https://place.map.kakao.com/1122097126#review,4.52,211,https://m.place.naver.com/share?id=1814202400&tabsPath=%2Fhome&appMode=detail,,,,128.9154930693199,35.09786099061615
141,네네치킨앤봉구스밥버거 명지국제신도시점,부산광역시 강서구 명지동 3412-2 정우빌딩2차 115호,강서구,명지동,호프/통닭,051 271 4479,374855.2625,179326.1111,,,,,,,,,,128.9154930693199,35.09786099061615
142,오복통닭 명지점,부산광역시 강서구 명지동 3412-2 정우빌딩2차 117호,강서구,명지동,호프/통닭,051 271 1970,374855.2625,179326.1111,,,,,,,,,,128.9154930693199,35.09786099061615
143,153구포국수 명지점,부산광역시 강서구 명지동 3412-6 105호,강서구,명지동,분식,051 204 3530,374968.8016,179313.7667,1.0,2,https://place.map.kakao.com/1736288329#review,,,,,,,128.91673498593605,35.0977300968366
144,교촌치킨 국제신도시점,"부산광역시 강서구 명지동 3412-6 115, 114일부",강서구,명지동,호프/통닭,051 291 9993,374968.8016,179313.7667,1.0,0,https://place.map.kakao.com/1720354437#review,,,,3.5,리뷰 6개,https://goo.gl/maps/QhyQUYRe91vHav758,128.91673498593605,35.0977300968366
145,국수나무국제신도시점,부산광역시 강서구 명지동 3420-2번지 시온플라자1동 108호,강서구,명지동,분식,051 203 6277,375052.9431,179304.9181,3.0,4,https://place.map.kakao.com/1211723027#review,,,,4.0,리뷰 1개,https://goo.gl/maps/jujEZb1xbbF1XEWc8,128.91765540519913,35.09763578481172
146,수제정담만두,부산광역시 강서구 명지동 3420-7번지 105호,강서구,명지동,분식,051 202 7942,375192.2933,179291.2555,5.0,9,https://place.map.kakao.com/1527305162#review,4.51,72,https://m.place.naver.com/share?id=1043826516&tabsPath=%2Fhome&appMode=detail,4.0,리뷰 1개,https://goo.gl/maps/JS5P7RmPVTaC2gNu5,128.91917995364315,35.09748851142347
147,또래오래 명지점,부산광역시 강서구 명지동 3420-7번지 2층 201호,강서구,명지동,호프/통닭,051 201 5222,375192.2933,179291.2555,3.0,4,https://place.map.kakao.com/39319628#review,,,,,,,128.91917995364315,35.09748851142347
148,처갓집양념치킨 명지국제신도시점,부산광역시 강서구 명지동 3425-3번지 서진빌딩 101호,강서구,명지동,호프/통닭,051 968 7888,374992.907,179031.6629,0.0,1,https://place.map.kakao.com/579202225#review,,,,,,,128.91693966409545,35.09518456184116
149,교촌치킨 명지법원네오점,부산광역시 강서구 명지동 3432-1 Neo Western Square 2동 1층 102호,강서구,명지동,호프/통닭,051 201 1991,374123.6353,178834.8928,3.7,0,https://place.map.kakao.com/1057909031#review,,,,3.5,리뷰 6개,https://goo.gl/maps/nehC6YbrdHuKQQ7E8,128.90737038108733,35.09356235055024
150,인생닭강정 명지롯데시네마점,부산광역시 강서구 명지동 3432-3,강서구,명지동,호프/통닭,,374253.1123,178757.4233,,,,,,,,,,128.90877325330254,35.09284210136178
151,달토끼의떡볶이흡입구역,부산광역시 강서구 명지동 3432-5,강서구,명지동,분식,,374105.4638,178726.2669,0.0,2,https://place.map.kakao.com/312336938#review,,,,,,,128.9071484014004,35.09258691595995
152,두끼떡볶이 스타필드시티명지점,부산광역시 강서구 명지동 3438 스타필드 시티 명지점 3300호,강서구,명지동,분식,051 990 0367,374851.6951,178805.7536,,,,,,,4.1,"리뷰 2,125개",https://goo.gl/maps/466fcGsVqnZvQsA46,128.91534422601282,35.09317392419576
153,비에이치씨(BHC) 국제신도시점,부산광역시 강서구 명지동 3440-3 삼융프라자 1동 107호,강서구,명지동,호프/통닭,051 202 3392,375347.8002,179274.067,0.0,0,https://place.map.kakao.com/2143630763#review,,,,4.0,리뷰 4개,https://goo.gl/maps/CVyehPRycmkzWfaR7,128.92088084476566,35.09730664730676
154,찰스 펍(PUB),부산광역시 강서구 명지동 3440-3번지 삼융프라자 201호,강서구,명지동,호프/통닭,,375347.8002,179274.067,0.0,1,https://place.map.kakao.com/626974993#review,4.33,23,https://m.place.naver.com/share?id=38317446&tabsPath=%2Fhome&appMode=detail,,,,128.92088084476566,35.09730664730676
155,달빛경성술집,"부산광역시 강서구 명지동 3440-4 지봉빌딩2 106,107호",강서구,명지동,호프/통닭,070 87772987,375372.8101,179272.7118,3.0,5,https://place.map.kakao.com/1453866911#review,,,,,,,128.92115469337273,35.09729009103191
156,땡초우동인포차,부산광역시 강서구 명지동 3440-5번지 106호,강서구,명지동,분식,070 43830666,375397.6412,179270.218,5.0,8,https://place.map.kakao.com/117325501#review,,,,,,,128.92142634110684,35.097263308096274
157,라운지위,"부산광역시 강서구 명지동 3440-6 미강빌딩 106,107호",강서구,명지동,호프/통닭,,375422.5226,179267.6034,5.0,0,https://place.map.kakao.com/1857120177#review,4.92,13,https://m.place.naver.com/share?id=1164744758&tabsPath=%2Fhome&appMode=detail,,,,128.92169851441437,35.0972354275769
158,피자알볼로 부산명지점,부산광역시 강서구 명지동 3442-2번지 가온프라자 105호,강서구,명지동,분식,051 293 8495,375289.4781,179205.6789,0.0,3,https://place.map.kakao.com/1123149099#review,,,,,,,128.9202271120424,35.09670070587804
159,몰틀리,부산광역시 강서구 명지동 3446-3번지 1층,강서구,명지동,호프/통닭,,375350.1352,179189.1753,5.0,4,https://place.map.kakao.com/650501035#review,4.38,80,https://m.place.naver.com/share?id=1967449728&tabsPath=%2Fhome&appMode=detail,,,,128.92088848343005,35.096541489942126
160,노랑통닭,부산광역시 강서구 명지동 3446-6 1층,강서구,명지동,통닭(치킨),051 271 4455,375358.8297,179148.7958,0.0,1,https://place.map.kakao.com/21958152#review,,,,4.0,리뷰 2개,https://goo.gl/maps/9dyZ4rduXVYW7Quw7,128.92097524272592,35.09617621760516
161,뚱보네돼지갈비 명지점,부산광역시 강서구 명지동 3448-7번지 1층,강서구,명지동,호프/통닭,051 312 5105,375395.8626,179164.7087,0.0,0,https://place.map.kakao.com/1952346010#review,,,,3.9,리뷰 23개,https://goo.gl/maps/ehrz24botJKYU5yB7,128.92138452382468,35.09631313139932
162,700비어,부산광역시 강서구 명지동 3453-1번지,강서구,명지동,호프/통닭,,375280.8052,179122.6336,0.0,5,https://place.map.kakao.com/1955126574#review,,,,,,,128.92011449097535,35.095954094472994
163,역전할머니맥주 부산명지국제신도시점,부산광역시 강서구 명지동 3453-4 103호,강서구,명지동,호프/통닭,051 294 1982,375273.9436,179060.1501,0.0,1,https://place.map.kakao.com/304414567#review,4.54,94,https://m.place.naver.com/share?id=1164403850&tabsPath=%2Fhome&appMode=detail,,,,128.92002607236188,35.09539240033193
164,크라운호프 부산명지점,부산광역시 강서구 명지동 3455-4번지,강서구,명지동,호프/통닭,,375353.2174,179115.3051,0.0,13,https://place.map.kakao.com/665024325#review,,,,,,,128.9209066433244,35.09587549039941
165,1979남포통닭,부산광역시 강서구 명지동 3455-7번지,강서구,명지동,호프/통닭,051 271 7799,375308.063,179085.8941,4.0,5,https://place.map.kakao.com/456442954#review,4.57,150,https://m.place.naver.com/share?id=1357169774&tabsPath=%2Fhome&appMode=detail,3.8,리뷰 25개,https://goo.gl/maps/vBgiJPUMSJsfnws37,128.92040549238288,35.095618387888784
166,꼬꼬아찌명지점,부산광역시 강서구 명지동 3457-11 1층 일부,강서구,명지동,호프/통닭,051 271 6780,375369.815,179096.7189,0.0,3,https://place.map.kakao.com/672674647#review,,,,,,,128.92108463623268,35.09570517029758
167,김해통닭 명지국제신도시점,부산광역시 강서구 명지동 3461-13 1층일부,강서구,명지동,호프/통닭,051 292 2288,375395.5033,179072.0389,0.0,0,https://place.map.kakao.com/771928576#review,,,,,,,128.92136098089836,35.09547837306961
168,탱스김밥,부산광역시 강서구 명지동 3487-3번지 1층일부,강서구,명지동,분식,051 202 6665,375153.3743,180334.0114,4.7,12,https://place.map.kakao.com/1809038120#review,4.52,211,https://m.place.naver.com/share?id=1896772310&tabsPath=%2Fhome&appMode=detail,4.5,리뷰 21개,https://goo.gl/maps/NHP7qYHgLAUArZix9,128.91897372119504,35.106888995943514
169,60계치킨 명지국제신도시점,부산광역시 강서구 명지동 3488-1번지,강서구,명지동,호프/통닭,051 202 7373,375126.4978,180315.2836,4.2,5,https://place.map.kakao.com/187197613#review,4.36,166,https://m.place.naver.com/share?id=1184060730&tabsPath=%2Fhome&appMode=detail,3.9,리뷰 28개,https://goo.gl/maps/Nm7nbtsqUTx7ZfAm6,128.91867513311252,35.106724953770126
170,국제통닭 명지점,부산광역시 강서구 명지동 3488-3번지 A동 1층 일부,강서구,명지동,호프/통닭,051 208 5119,375124.1893,180291.2132,5.0,2,https://place.map.kakao.com/209119787#review,,,,,,,128.9186447395369,35.106508515262405
171,술잔비어스,부산광역시 강서구 명지동 3493-2,강서구,명지동,호프/통닭,,375284.8681,180322.4698,,,,,,,,,,128.92041276223938,35.1067621735529
172,신마녀떡볶이,부산광역시 강서구 명지동 3502-3 1층 일부,강서구,명지동,분식,,375111.3572,180169.0214,,,,,,,,,,128.91847824888535,35.10540997242612
173,데일리김밥,부산광역시 강서구 명지동 3503-5번지 101호,강서구,명지동,분식,051 293 1009,375141.6622,180136.873,5.0,0,https://place.map.kakao.com/1978485884#review,4.4,89,https://m.place.naver.com/share?id=1288731674&tabsPath=%2Fhome&appMode=detail,,,,128.9188036630591,35.10511509890711
174,그놈포차 명지점,부산광역시 강서구 명지동 3506-3번지 1층 일부,강서구,명지동,호프/통닭,,375230.2965,180164.2918,,,,,,,3.9,리뷰 16개,https://goo.gl/maps/NFZdfJgADz2bp43f9,128.919781081221,35.10534670458616
175,김양비어&포차 부산명지점,부산광역시 강서구 명지동 3506-5번지,강서구,명지동,호프/통닭,051 293 3682,375226.1772,180127.0668,0.0,1,https://place.map.kakao.com/467927372#review,,,,,,,128.91972805372177,35.10501207719512
176,연화길해물만찬,부산광역시 강서구 명지동 3506-6 명진빌 1층 일부,강서구,명지동,호프/통닭,051 293 7895,375212.1579,180128.549,,,,,,,3.9,"리뷰 2,478개",https://goo.gl/maps/EfPRdT8QLMziX4qJ9,128.91957468596962,35.10502786560421
177,1도씨맥주,부산광역시 강서구 명지동 3506-8번지,강서구,명지동,호프/통닭,051 992 5111,375215.8759,180165.8181,0.0,22,https://place.map.kakao.com/1363970263#review,4.27,112,https://m.place.naver.com/share?id=1103239544&tabsPath=%2Fhome&appMode=detail,,,,128.9196233230682,35.10536296008632
178,치킨시티 명지국제신도시점,부산광역시 강서구 명지동 3510-5 101호,강서구,명지동,호프/통닭,051 914 1231,375339.9434,180113.7597,0.0,22,https://place.map.kakao.com/280854394#review,,,,,,,128.92097235528476,35.1048724248689
179,흔한,부산광역시 강서구 명지동 3586-2 플러스존1 123호 일부,강서구,명지동,호프/통닭,,373401.8115,178925.5485,,,,,,,,,,128.89947765217434,35.09450336461324
180,테라비2(TerraB2),"부산광역시 강서구 명지동 3589-6 104, 105, 202호",강서구,명지동,호프/통닭,051 293 0888,373444.9765,178660.5774,,,,,,,,,,128.89989535115754,35.092108907036874
181,지코바(명지2호점),부산광역시 강서구 명지동 3589-9 도형건설 107호,강서구,명지동,호프/통닭,,373350.0851,178669.0176,0.0,1,https://place.map.kakao.com/1486439564#review,,,,,,,128.8988570569264,35.09220125088556
182,가마치통닭 명지포스코점,부산광역시 강서구 명지동 3594 더샵 명지퍼스트월드 2단지 116호,강서구,명지동,호프/통닭,051 294 1343,373753.9875,179343.1529,5.0,0,https://place.map.kakao.com/1482436748#review,,,,4.0,리뷰 1개,https://goo.gl/maps/Lvrh7eBJAaGmCi6H8,128.9034253101054,35.09820481921268
183,공만치킨 부산명지점,부산광역시 강서구 명지동 3594 더샵 명지퍼스트월드 2단지 판매시설동,강서구,명지동,호프/통닭,051 203 5779,373753.9875,179343.1529,0.0,0,https://place.map.kakao.com/1655711532#review,4.18,11,https://m.place.naver.com/share?id=1983135949&tabsPath=%2Fhome&appMode=detail,,,,128.9034253101054,35.09820481921268
184,비비큐 명지국제신도시점,부산광역시 강서구 명지동 3595-3 더샵 명지퍼스트월드 3단지,강서구,명지동,호프/통닭,051 207 3001,373735.179,179050.3781,0.0,1,https://place.map.kakao.com/885056914#review,,,,,,,128.90315778994656,35.095570554092035
185,(주)서린골프,부산광역시 강서구 명지동 3597-2 SR빌딩 906호,강서구,명지동,분식,051 710 4005,373682.2797,178901.6439,,,,4.36,45,https://m.place.naver.com/share?id=1973125147&tabsPath=%2Fhome&appMode=detail,,,,128.90254680655738,35.09423976840249
186,타코락 명지국제점,부산광역시 강서구 명지동 3597-4 대산골든스퀘어 109호,강서구,명지동,분식,,373751.3594,178895.633,3.0,7,https://place.map.kakao.com/1421042924#review,4.66,48,https://m.place.naver.com/share?id=1192641204&tabsPath=%2Fhome&appMode=detail,,,,128.90330271406503,35.09417372291475
187,역전할머니맥주1982 부산명지포스코점,"부산광역시 강서구 명지동 3597-4 대산골든스퀘어 1층 101호, 102호",강서구,명지동,호프/통닭,051 294 9998,373751.3594,178895.633,3.5,0,https://place.map.kakao.com/770379247#review,,,,,,,128.90330271406503,35.09417372291475
188,붐테이블 푸드코트 부산명지점,부산광역시 강서구 명지동 3597-4 대산골든스퀘어 308호,강서구,명지동,분식,,373751.3594,178895.633,,,,,,,,,,128.90330271406503,35.09417372291475
189,자담치킨 명지점,부산광역시 강서구 명지동 3598-2 플러스타워,강서구,명지동,호프/통닭,,373676.5557,178835.4878,0.0,2,https://place.map.kakao.com/1195505060#review,,,,4.2,리뷰 5개,https://goo.gl/maps/ptCWgbxqC1VCJE2w6,128.9024702099437,35.0936447763448
190,돈치킨,부산광역시 강서구 명지동 3598-2 플러스타워 116호,강서구,명지동,호프/통닭,051 973 9298,373676.5557,178835.4878,0.0,1,https://place.map.kakao.com/705694918#review,,,,,,,128.9024702099437,35.0936447763448
191,먹고사는이야기 부산명지국제신도시점,부산광역시 강서구 명지동 3598-2번지 플러스타워 113호,강서구,명지동,분식,,373676.5557,178835.4878,,,,,,,,,,128.9024702099437,35.0936447763448
192,포다리치킨,부산광역시 강서구 명지동 3598-4 제이티프라자,강서구,명지동,호프/통닭,051 208 8005,373739.3726,178830.0192,,,,,,,,,,128.90315758110506,35.09358469546962
193,그집튀김분식,부산광역시 강서구 명지동 3599-1 e편한세상 명지 비주거시설동 1-72호,강서구,명지동,분식,070 46474370,374032.1287,179398.7823,,,,,,,,,,128.90648577539807,35.09865801283699
194,샵(#)76비어,부산광역시 강서구 명지동 3599-1번지 e편한세상 명지 비주거시설동 1-68호,강서구,명지동,호프/통닭,,374032.1287,179398.7823,0.0,1,https://place.map.kakao.com/1630335322#review,,,,,,,128.90648577539807,35.09865801283699
195,정가는칼국수,부산광역시 강서구 명지동 3602-2 102호,강서구,명지동,분식,,373931.5475,178879.9823,,,,,,,,,,128.90527442902285,35.09400168117479
196,똥꼬치킨 명지점,부산광역시 강서구 명지동 3603-2 108호,강서구,명지동,호프/통닭,051 714 3311,373925.112,178813.8611,5.0,0,https://place.map.kakao.com/406524398#review,,,,3.9,리뷰 8개,https://goo.gl/maps/R7mReyNVHhkFBMcU9,128.90519002178618,35.0934071285091
197,엠유엔지(MUNG),부산광역시 강서구 명지동 3603-5번지 퍼스트삼융 307호,강서구,명지동,호프/통닭,,374028.3362,178804.689,,,,,,,,,,128.90631950067882,35.093306699351025
198,더킹임다국물떡볶이앤피자,부산광역시 강서구 명지동 3604-2 부산 명지 제나우스 블루오션 오피스텔 220호,강서구,명지동,분식,,373970.9888,178683.0635,0.0,0,https://place.map.kakao.com/1735834586#review,,,,,,,128.90566541939364,35.09222090981183
199,맥코리아통닭,부산광역시 강서구 미음동 15-35번지,강서구,미음동,호프/통닭,051 9717592,370679.9908,184302.4292,,,,,,,,,,128.8707520794133,35.143406708311474
200,복김밥,부산광역시 강서구 범방동 1866-9 1층 일부,강서구,범방동,분식,,371347.2435,185018.2199,5.0,1,https://place.map.kakao.com/1630631395#review,4.35,23,https://m.place.naver.com/share?id=1739433893&tabsPath=%2Fhome&appMode=detail,,,,128.87821850084,35.14974173753047
201,용비어천가,부산광역시 강서구 범방동 1878-3,강서구,범방동,호프/통닭,,371414.5208,184971.2142,,,,,,,,,,128.87894667869273,35.14930682486659
202,맥시칸경마공원점,부산광역시 강서구 범방동 344-18,강서구,범방동,호프/통닭,051 972 7728,371312.0,184983.0,0.0,0,https://place.map.kakao.com/832448008#review,4.03,20,https://m.place.naver.com/share?id=1857339505&tabsPath=%2Fhome&appMode=detail,,,,128.87782464029812,35.14943044973755
203,옛날국시,부산광역시 강서구 봉림동 27-3번지 외 1필지,강서구,봉림동,분식,051 972 4957,373307.9409,189134.1217,5.0,4,https://place.map.kakao.com/15609188#review,4.55,123,https://m.place.naver.com/share?id=21498911&tabsPath=%2Fhome&appMode=detail,4.1,리뷰 65개,https://goo.gl/maps/ay1BGzMMYwB7wqr16,128.90058740963084,35.186484460019464
204,명품달인김밥 가락점,부산광역시 강서구 봉림동 73-142 A동 1층 일부,강서구,봉림동,분식,051 973 1020,373067.069,188322.1091,0.0,0,https://place.map.kakao.com/100576735#review,4.22,55,https://m.place.naver.com/share?id=1765709775&tabsPath=%2Fhome&appMode=detail,4.0,리뷰 1개,https://goo.gl/maps/yQtAstrSeEsthuGr7,128.8977740485414,35.17921089896994
205,닭판오분전,"부산광역시 강서구 송정동 1191-4번지 , 6, 26번지",강서구,송정동,통닭(치킨),051 9710888,367959.0232,179615.7832,0.0,0,https://place.map.kakao.com/25759426#review,,,,,,,128.8399586433316,35.10164255178336
206,처갓집양념치킨 신호동점,부산광역시 강서구 신호동 214 삼성빌딩 101호,강서구,신호동,호프/통닭,051 831 0318,371385.4054,178075.6043,0.0,0,https://place.map.kakao.com/1599680853#review,,,,,,,128.8772003152916,35.087190977464154
207,맘스터치 신호점,부산광역시 강서구 신호동 215번지 허브원 102호,강서구,신호동,통닭(치킨),,371178.8238,178059.0634,4.8,0,https://place.map.kakao.com/26553206#review,,,,4.0,리뷰 65개,https://goo.gl/maps/dtayPGqDAaKUoXDs5,128.8749327659824,35.08707702903134
208,맥땅 신호점,부산광역시 강서구 신호동 215번지 허브원 110호,강서구,신호동,호프/통닭,051 972 1503,371178.8238,178059.0634,0.0,1,https://place.map.kakao.com/26624420#review,,,,,,,128.8749327659824,35.08707702903134
209,노가리앤비어,부산광역시 강서구 신호동 218-12 1층 일부,강서구,신호동,호프/통닭,051 971 1379,371195.4964,177853.8703,0.0,3,https://place.map.kakao.com/1826710318#review,,,,3.3,리뷰 3개,https://goo.gl/maps/dwBVrfrVZKGye52p8,128.87507314782383,35.08522565503823
210,소주빠,부산광역시 강서구 신호동 218-13번지,강서구,신호동,호프/통닭,051 9736227,371173.9094,177853.4389,,,,,,,,,,128.8748364707194,35.08522543048515
211,명랑시대쌀핫도그 신호점,부산광역시 강서구 신호동 218번지 부경타운 1층 105호 일부호,강서구,신호동,분식,,371173.7994,177877.771,0.0,0,https://place.map.kakao.com/653277711#review,,,,,,,128.87484028620727,35.08544465245937
212,킴즈호프,부산광역시 강서구 신호동 218번지 부경타운 303호,강서구,신호동,호프/통닭,,371173.7994,177877.771,0.0,0,https://place.map.kakao.com/2114301739#review,,,,,,,128.87484028620727,35.08544465245937
213,쿠웨이트떡볶이앤드닭발 신호명지점,부산광역시 강서구 신호동 219-10 1층 일부,강서구,신호동,분식,051 973 7353,371269.0931,177797.4047,,,,,,,,,,128.8758680905479,35.08470447949984
214,역전할머니맥주(부산신호점),부산광역시 강서구 신호동 219-12 101호,강서구,신호동,호프/통닭,051 831 2392,371231.8694,177796.669,0.0,3,https://place.map.kakao.com/734934787#review,4.56,99,https://m.place.naver.com/share?id=1733495126&tabsPath=%2Fhome&appMode=detail,,,,128.87545997906258,35.08470416835843
215,분식카페 명지신호점,부산광역시 강서구 신호동 219-12 103호,강서구,신호동,분식,,371231.8694,177796.669,0.0,1,https://place.map.kakao.com/1966410146#review,,,,,,,128.87545997906258,35.08470416835843
216,60계치킨 부산신호점,부산광역시 강서구 신호동 219-13,강서구,신호동,호프/통닭,,371213.2588,177796.3052,0.0,0,https://place.map.kakao.com/1242459416#review,,,,,,,128.87525593783258,35.084704048545895
217,맵도리탕,부산광역시 강서구 신호동 219-13 영광빌딩 102호,강서구,신호동,호프/통닭,051 972 9288,371213.2588,177796.3052,0.0,16,https://place.map.kakao.com/1250710776#review,,,,4.0,리뷰 1개,https://goo.gl/maps/uaFYj89V7oP8hMLe9,128.87525593783258,35.084704048545895
218,구운통닭,부산광역시 강서구 신호동 219-14번지 104호,강서구,신호동,호프/통닭,051 711 9909,371194.6532,177795.9414,0.0,0,https://place.map.kakao.com/193912234#review,4.7,30,https://m.place.naver.com/share?id=1467532976&tabsPath=%2Fhome&appMode=detail,,,,128.87505195138553,35.084703927541646
219,오복통닭,부산광역시 강서구 신호동 220-4,강서구,신호동,통닭(치킨),051 831 6433,371343.9296,177797.5898,,,,4.35,118,https://m.place.naver.com/share?id=30828226&tabsPath=%2Fhome&appMode=detail,4.3,리뷰 60개,https://goo.gl/maps/fZRspofzPwKSvM1WA,128.87668831205193,35.08469344357164
220,닭굽는마을,부산광역시 강서구 신호동 231-17번지 1층,강서구,신호동,통닭(치킨),051 831 2357,371396.5638,177661.9746,5.0,2,https://place.map.kakao.com/418287701#review,4.84,40,https://m.place.naver.com/share?id=13555567&tabsPath=%2Fhome&appMode=detail,3.7,리뷰 3개,https://goo.gl/maps/Ns9gQ6dJ6Gkr9Sfk8,128.8772371455653,35.083462775208524
221,썬더치킨,부산광역시 강서구 신호동 232-18번지,강서구,신호동,통닭(치킨),051 972 8592,371291.1197,177659.8561,2.8,0,https://place.map.kakao.com/22550629#review,,,,4.0,리뷰 5개,https://goo.gl/maps/6EaVCcRhqAddErJa8,128.87608109325316,35.0834615922205
222,302키친,부산광역시 강서구 신호동 232-20번지,강서구,신호동,호프/통닭,051 832 1302,371267.9836,177659.3891,4.7,11,https://place.map.kakao.com/27584406#review,,,,,,,128.87582743661554,35.083461311650815
223,바른치킨 부산신호점,부산광역시 강서구 신호동 232-20번지,강서구,신호동,호프/통닭,051 832 5055,371267.9836,177659.3891,5.0,1,https://place.map.kakao.com/1400832811#review,,,,4.6,리뷰 20개,https://goo.gl/maps/Fa8T13VPboY13Nz17,128.87582743661554,35.083461311650815
224,소나무 신 맛집,부산광역시 강서구 신호동 233-11 1층,강서구,신호동,호프/통닭,051 971 3403,371359.203,177725.695,0.0,0,https://place.map.kakao.com/616831557#review,,,,,,,128.8768408521621,35.08404316414007
225,더비어,부산광역시 강서구 신호동 233-23번지 1층 일부,강서구,신호동,호프/통닭,,371232.4163,177704.1311,0.0,0,https://place.map.kakao.com/1113622774#review,4.82,17,https://m.place.naver.com/share?id=1993045607&tabsPath=%2Fhome&appMode=detail,,,,128.87544687166087,35.08387041916393
226,심쿵포차,부산광역시 강서구 신호동 235-1,강서구,신호동,호프/통닭,051 941 9331,371196.7821,177752.0213,0.0,0,https://place.map.kakao.com/176519314#review,,,,,,,128.87506621944647,35.08430789846744
227,브롱스수제맥주 신호점,부산광역시 강서구 신호동 235-1번지,강서구,신호동,호프/통닭,,371196.7821,177752.0213,,,,,,,,,,128.87506621944647,35.08430789846744
228,수타5900 신호점,부산광역시 강서구 신호동 236-2번지 101호,강서구,신호동,분식,,371174.0743,177743.6586,0.0,0,https://place.map.kakao.com/1201477160#review,,,,,,,128.87481562486187,35.08423641231883
229,고은이네떡볶이,부산광역시 강서구 신호동 236-2번지 103호,강서구,신호동,분식,051 315 4283,371174.0743,177743.6586,,,,,,,,,,128.87481562486187,35.08423641231883
230,미쳐버린파닭,부산광역시 강서구 신호동 236-5번지,강서구,신호동,호프/통닭,051 974 0802,371174.8259,177706.4328,0.0,1,https://place.map.kakao.com/2054560923#review,,,,,,,128.87481618079772,35.08390092452576
231,오꾸닭 신호점,부산광역시 강서구 신호동 236-9번지,강서구,신호동,통닭(치킨),051 941 5991,371176.0732,177655.8047,1.0,3,https://place.map.kakao.com/18858859#review,,,,3.7,리뷰 22개,https://goo.gl/maps/NwoJUF4xgCRDuxsd7,128.87481940400593,35.083444613798264
232,비에이치씨(BHC) 신호점,부산광역시 강서구 신호동 237-2,강서구,신호동,호프/통닭,051 903 9292,371176.9509,177603.5005,0.0,0,https://place.map.kakao.com/1009462596#review,4.44,86,https://m.place.naver.com/share?id=1756746669&tabsPath=%2Fhome&appMode=detail,,,,128.8748182308455,35.08297326605117
233,바사삭치킨강정 명지점,부산광역시 강서구 신호동 237-5번지 1층 일부호,강서구,신호동,호프/통닭,051 972 7712,371177.6982,177566.6224,0.0,8,https://place.map.kakao.com/1666943485#review,4.09,16,https://m.place.naver.com/share?id=1587960949&tabsPath=%2Fhome&appMode=detail,4.5,리뷰 4개,https://goo.gl/maps/m1wMAEZQ2rMRJFRs7,128.87481881161952,35.08264091128671
234,아모르,부산광역시 강서구 신호동 242-12번지 1층,강서구,신호동,호프/통닭,,371359.6675,177617.6334,0.0,0,https://place.map.kakao.com/1091370195#review,,,,,,,128.8768236215367,35.083069579451205
235,호식이두마리치킨 신호점,부산광역시 강서구 신호동 243-13 102호,강서구,신호동,통닭(치킨),8310422,371402.9038,177632.6898,0.0,0,https://place.map.kakao.com/24122074#review,,,,,,,128.87730057821312,35.08319787748614
236,닭꾸버 신호점,부산광역시 강서구 신호동 245-16번지,강서구,신호동,호프/통닭,051 941 2585,371482.6285,177635.4331,2.5,2,https://place.map.kakao.com/1421392430#review,,,,,,,128.87817488479416,35.08320904808453
237,이삭토스트,부산광역시 강서구 신호동 298-1번지 101호,강서구,신호동,분식,,370949.5932,177996.7383,0.0,0,https://place.map.kakao.com/25597095#review,,,,3.8,리뷰 6개,https://goo.gl/maps/k5FNYmcfLvBoMLRJ7,128.87240755196927,35.08655441346255
238,치킨신드롬 신호점,부산광역시 강서구 신호동 300-1번지 부산신호사랑으로부영3차 상가동 104호,강서구,신호동,호프/통닭,051 931 9233,371014.8933,177767.9668,0.0,0,https://place.map.kakao.com/670440740#review,,,,,,,128.87307607222922,35.084482387588935
239,쎄라비,부산광역시 강서구 신호동 302-2 부산신호사랑으로부영5차 상가동 107호,강서구,신호동,호프/통닭,051 831 2131,370927.8825,177534.6092,,,,,,,,,,128.87207438211732,35.08239484990549
240,꿈꾸고노래하라,부산광역시 강서구 신호동 307-4번지,강서구,신호동,호프/통닭,,370994.0749,177355.1199,0.0,7,https://place.map.kakao.com/128333270#review,,,,,,,128.8727628172172,35.08076664910927
241,신호락,부산광역시 강서구 신호동 308-4번지,강서구,신호동,호프/통닭,,370928.687,177394.4987,0.0,0,https://place.map.kakao.com/1723488081#review,,,,,,,128.87205433285848,35.081132481742415
242,교촌치킨 신호점,"부산광역시 강서구 신호동 317-15 104,105호",강서구,신호동,호프/통닭,051 941 9207,370724.7256,177503.4903,3.0,3,https://place.map.kakao.com/606701766#review,,,,4.6,리뷰 20개,https://goo.gl/maps/5ugGoKfv3cmakaaH9,128.86984150131673,35.08214889086572
243,굿모닝뷔페,부산광역시 강서구 죽림동 775-4,강서구,죽림동,분식,051 941 0081,372863.7324,190161.1906,0.0,0,https://place.map.kakao.com/24122050#review,3.83,30,https://m.place.naver.com/share?id=34690693&tabsPath=%2Fhome&appMode=detail,4.0,리뷰 20개,https://goo.gl/maps/iYTwVbY9u4aqMxP96,128.8959281800492,35.19581332962917
244,BHC지사점,부산광역시 강서구 지사동 1184-1번지 상가B동 113호,강서구,지사동,통닭(치킨),051 322 3225,367397.0144,185185.0569,5.0,0,https://place.map.kakao.com/26628388#review,,,,,,,128.83492399186724,35.15190933622208
245,숯양두마리치킨 지사점,부산광역시 강서구 지사동 1185-1 지사과학단지 삼정그린코아 111동 102호,강서구,지사동,호프/통닭,051 831 0077,367676.2352,185150.0154,5.0,2,https://place.map.kakao.com/244678192#review,4.58,57,https://m.place.naver.com/share?id=1325065725&tabsPath=%2Fhome&appMode=detail,,,,128.83797963546112,35.15154718122789
246,가마치통닭 지사점,부산광역시 강서구 지사동 1187-14번지,강서구,지사동,호프/통닭,051 973 7890,367225.571,184992.6114,0.0,1,https://place.map.kakao.com/636664963#review,,,,4.2,리뷰 14개,https://goo.gl/maps/UPwtAstJskoQ625JA,128.83300451772584,35.150204103030994
247,ㅤㅆㅛㅇㅤㅆㅛㅇ돈까스&도시락 부산지사점,부산광역시 강서구 지사동 1188-16,강서구,지사동,호프/통닭,051 831 1090,367131.8109,184981.1239,,,,,,,,,,128.83197376771687,35.150116182723345
248,유미푸드,부산광역시 강서구 지사동 1188-6,강서구,지사동,분식,,367166.8939,184999.7151,0.0,0,https://place.map.kakao.com/1853377096#review,,,,,,,128.83236234143234,35.150277844730454
249,옛날통닭 지사점,부산광역시 강서구 지사동 1188-9,강서구,지사동,호프/통닭,051 831 5670,367202.2336,185000.1993,0.0,0,https://place.map.kakao.com/277710952#review,,,,,,,128.832750070822,35.15027633811744
250,호식이두마리치킨 강서지사점,부산광역시 강서구 지사동 1189-4,강서구,지사동,통닭(치킨),051 953 9281,367136.5609,184937.4481,0.0,0,https://place.map.kakao.com/674188302#review,,,,,,,128.83201704085596,35.1497219217536
251,삼파통닭맥주집,부산광역시 강서구 지사동 1190-10번지 성원빌딩,강서구,지사동,통닭(치킨),,367170.2404,184912.196,0.0,0,https://place.map.kakao.com/1433334814#review,,,,4.5,리뷰 2개,https://goo.gl/maps/DPEVN9XQLiJVivWu8,128.83238135444148,35.14948883541086
252,비비어(B·Bear),부산광역시 강서구 지사동 1190-14 1층,강서구,지사동,호프/통닭,,367120.6795,184911.1773,,,,4.8,67,https://m.place.naver.com/share?id=1620899601&tabsPath=%2Fhome&appMode=detail,4.5,리뷰 2개,https://goo.gl/maps/NkQbrEWPWGNoWr5cA,128.83183753369835,35.149487886246675
253,교촌치킨 지사점,부산광역시 강서구 지사동 1191-5번지 1층,강서구,지사동,호프/통닭,051 831 6880,366969.3747,184908.1358,0.0,1,https://place.map.kakao.com/1672110047#review,,,,4.8,리뷰 4개,https://goo.gl/maps/TCvLHG9iJDHzLDVn6,128.83017731297213,35.14948559050224
254,닭굽는마을,부산광역시 강서구 지사동 1192-17,강서구,지사동,호프/통닭,051 831 9282,367006.3807,184934.8425,5.0,1,https://place.map.kakao.com/1332095853#review,4.71,41,https://m.place.naver.com/share?id=1677976853&tabsPath=%2Fhome&appMode=detail,,,,128.83058861215451,35.14972005155922
255,밤엔숯불치킨,부산광역시 강서구 지사동 1193-11 1층,강서구,지사동,호프/통닭,051 971 8747,367062.4911,184979.738,0.0,0,https://place.map.kakao.com/1058252863#review,,,,,,,128.8312131388422,35.15011520284322
256,해피핫닭,부산광역시 강서구 지사동 1193-15번지 1층,강서구,지사동,호프/통닭,051 972 9255,367011.9742,184978.7175,0.0,0,https://place.map.kakao.com/1633023444#review,4.8,15,https://m.place.naver.com/share?id=1169088168&tabsPath=%2Fhome&appMode=detail,,,,128.83065882724853,35.15011439093909
257,장터수구레선지국밥,부산광역시 강서구 지사동 1194-12번지,강서구,지사동,통닭(치킨),051 971 7676,366970.1148,185002.1742,0.0,0,https://place.map.kakao.com/629088280#review,4.68,42,https://m.place.naver.com/share?id=1657737067&tabsPath=%2Fhome&appMode=detail,4.3,리뷰 3개,https://goo.gl/maps/4p7dvMmXGAqtyfHU7,128.8302044199763,35.15033265435827
258,페리카나 지사점,부산광역시 강서구 지사동 1194-9 1층 일부,강서구,지사동,호프/통닭,051 792 9285,367073.1266,185023.768,0.0,0,https://place.map.kakao.com/262340894#review,,,,,,,128.83133869319238,35.15051010137552
259,썬더치킨 지사점,부산광역시 강서구 지사동 1195-2번지,강서구,지사동,통닭(치킨),051 941 8592,366868.4292,185013.6625,,,,,,,4.1,리뷰 7개,https://goo.gl/maps/BsXAQhBmC7PAHhq96,128.8290913742657,35.150453011665256
260,김밥일번지 지사점,"부산광역시 강서구 지사동 1196-4번지 굿프라임 106,107호 1동",강서구,지사동,분식,051 971 1811,366778.8371,184946.1318,3.5,0,https://place.map.kakao.com/1013951068#review,4.13,413,https://m.place.naver.com/share?id=1119641678&tabsPath=%2Fhome&appMode=detail,,,,128.82809503769963,35.14985947696357
261,나이스퓨전호프,부산광역시 강서구 지사동 1215-2번지 지사복합상가A동 202호 일부,강서구,지사동,호프/통닭,051 831 0392,366799.2165,184790.2455,,,,,,,,,,128.8282871285097,35.148451728209615
262,1966정원,부산광역시 강서구 천성동 643 1층,강서구,천성동,호프/통닭,051 973 9277,365640.5037,171419.5277,4.3,34,https://place.map.kakao.com/1129136947#review,,,,4.2,리뷰 34개,https://goo.gl/maps/Nxx2kWBfdPKG1GYr8,128.81290736949325,35.02818469082811
263,1966노을,부산광역시 강서구 천성동 643 2층,강서구,천성동,호프/통닭,051 973 9277,365640.5037,171419.5277,,,,,,,,,,128.81290736949325,35.02818469082811
264,불로만숯불바베큐,부산광역시 강서구 화전동 558 우방아이유쉘 211동 107호,강서구,화전동,호프/통닭,051 971 7455,371873.1502,180659.7072,,,,,,,,,,128.88308176140742,35.11038755838938
265,썬더치킨 화전점,부산광역시 강서구 화전동 558번지 우방아이유쉘 211동 110호,강서구,화전동,호프/통닭,051 831 8592,371873.1502,180659.7072,,,,,,,4.0,리뷰 5개,https://goo.gl/maps/ebVeeGnV8AFLucky6,128.88308176140742,35.11038755838938
266,치킨신드롬(화전점),부산광역시 강서구 화전동 558번지 우방아이유쉘 212동 130호,강서구,화전동,호프/통닭,051 203 4568,371873.1502,180659.7072,0.0,0,https://place.map.kakao.com/1616998421#review,4.5,45,https://m.place.naver.com/share?id=1677262361&tabsPath=%2Fhome&appMode=detail,,,,128.88308176140742,35.11038755838938
267,녹산뽕잎칼국수,부산광역시 강서구 화전동 562-1번지,강서구,화전동,분식,,371296.9251,180697.4966,4.5,1,https://place.map.kakao.com/18780939#review,4.68,11,https://m.place.naver.com/share?id=32018516&tabsPath=%2Fhome&appMode=detail,,,,128.87677236677655,35.11082606011528
268,총각통닭,부산광역시 강서구 화전동 563-8 1층,강서구,화전동,호프/통닭,051 972 8894,371224.3601,180682.3183,0.0,0,https://place.map.kakao.com/174502657#review,,,,5.0,리뷰 3개,https://goo.gl/maps/gMwLkeRMjQ2gTJJc7,128.87597368766026,35.11070164877408
269,굽는치킨,부산광역시 강서구 화전동 564-2번지,강서구,화전동,통닭(치킨),051 973 4800,371200.2025,180678.678,1.0,0,https://place.map.kakao.com/21007753#review,,,,4.7,리뷰 3개,https://goo.gl/maps/9urdZFN3sMnbd5fw6,128.87570809196615,35.110672956566034
270,뚱띠포차,부산광역시 강서구 화전동 571-2 1층,강서구,화전동,호프/통닭,051 941 3257,371556.0973,180582.1528,0.0,0,https://place.map.kakao.com/1767911789#review,4.25,24,https://m.place.naver.com/share?id=1049151840&tabsPath=%2Fhome&appMode=detail,,,,128.87958982641845,35.10974288909251
271,멧돌분식,부산광역시 금정구 구서동 1017-37번지,금정구,구서동,분식,51,389853.831,197554.6509,,,,,,,4.2,리뷰 12개,https://goo.gl/maps/vkkecnkPyV2awatZ8,129.08407516418183,35.25934405164937
272,진칼국수,부산광역시 금정구 구서동 1023-7번지 1층,금정구,구서동,분식,,389651.5523,197393.99,,,,,,,,,,129.0818167425794,35.25793518940249
273,교촌치킨(구서1호),부산광역시 금정구 구서동 1024-1,금정구,구서동,통닭(치킨),051 5150457,389791.5267,197405.2204,1.0,1,https://place.map.kakao.com/8705125#review,4.51,141,https://m.place.naver.com/share?id=1923550465&tabsPath=%2Fhome&appMode=detail,3.6,리뷰 9개,https://goo.gl/maps/8PEYfa1aSxLEpqDn8,129.0833564719757,35.25800986366081
274,다루,부산광역시 금정구 구서동 1026-9번지,금정구,구서동,분식,051 513 3395,389612.651,197243.029,0.0,1,https://place.map.kakao.com/11743819#review,4.44,77,https://m.place.naver.com/share?id=13335989&tabsPath=%2Fhome&appMode=detail,,,,129.08135474517366,35.25658277538336
275,국제통닭,부산광역시 금정구 구서동 1033-1번지,금정구,구서동,분식,051 5146131,389654.037,196993.6719,5.0,0,https://place.map.kakao.com/1458736179#review,,,,,,,129.08175173122348,35.25432888278639
276,정성한끼 김밥달인,부산광역시 금정구 구서동 1074번지,금정구,구서동,분식,,389780.1812,195899.5707,5.0,2,https://place.map.kakao.com/983493629#review,4.39,97,https://m.place.naver.com/share?id=1144424340&tabsPath=%2Fhome&appMode=detail,4.5,리뷰 4개,https://goo.gl/maps/oeWVZ7cqNFHt8p3VA,129.08288459120828,35.24444997862041
277,땅땅치킨 구서점,부산광역시 금정구 구서동 1074번지 구서에스케이뷰1단지,금정구,구서동,호프/통닭,,389780.1812,195899.5707,3.0,1,https://place.map.kakao.com/412882563#review,,,,3.9,리뷰 7개,https://goo.gl/maps/4n2LKr9UbCcrUv1R8,129.08288459120828,35.24444997862041
278,행복밥상,부산광역시 금정구 구서동 158-16번지,금정구,구서동,분식,,389990.4152,197554.6292,0.0,0,https://place.map.kakao.com/1872769011#review,,,,,,,129.08557509129483,35.259317986311466
279,나경분식,부산광역시 금정구 구서동 158-20,금정구,구서동,분식,,389939.5064,197559.9507,0.0,0,https://place.map.kakao.com/807739736#review,,,,,,,129.0850172532968,35.259375563825955
280,7번가피자 구서·남산점,부산광역시 금정구 구서동 158-6번지 푸른숲요양병원 1층일부,금정구,구서동,패스트푸드,,389946.6482,197670.323,0.0,2,https://place.map.kakao.com/14580436#review,,,,,,,129.0851211740774,35.26036837886697
281,옹배기 해물칼국수,부산광역시 금정구 구서동 161-12번지,금정구,구서동,분식,051 5834448,390119.8696,197560.5306,5.0,27,https://place.map.kakao.com/15522259#review,4.44,118,https://m.place.naver.com/share?id=20037806&tabsPath=%2Fhome&appMode=detail,4.2,리뷰 82개,https://goo.gl/maps/g6U9q8agbvcW8vCx5,129.0869980882264,35.2593466059509
282,통생오리,부산광역시 금정구 구서동 161-20번지,금정구,구서동,분식,051 512 9489,390143.6792,197562.598,,,,4.0,10,https://m.place.naver.com/share?id=31321483&tabsPath=%2Fhome&appMode=detail,,,,129.08726003667869,35.2593607131721
283,자기야 통닭,부산광역시 금정구 구서동 162-12,금정구,구서동,호프/통닭,051 512 7377,390208.8934,197566.9536,4.6,3,https://place.map.kakao.com/822266687#review,4.78,68,https://m.place.naver.com/share?id=1544002813&tabsPath=%2Fhome&appMode=detail,5.0,리뷰 1개,https://goo.gl/maps/fhTmoHmVwpv5bTj79,129.08797720829918,35.2593875772507
284,bhc두실점,부산광역시 금정구 구서동 163-10번지,금정구,구서동,호프/통닭,,390176.35,197427.799,5.0,1,https://place.map.kakao.com/1821444893#review,,,,,,,129.08758764960135,35.25814033002726
285,월드돈까스,부산광역시 금정구 구서동 163-31번지,금정구,구서동,분식,051 515 9951,390177.3553,197454.4608,5.0,0,https://place.map.kakao.com/20696433#review,4.58,32,https://m.place.naver.com/share?id=1228434275&tabsPath=%2Fhome&appMode=detail,4.2,리뷰 6개,https://goo.gl/maps/gH2BNiUSBg3gESPv8,129.08760485410627,35.258380292655865
286,피자스쿨 두실점,부산광역시 금정구 구서동 164-22번지,금정구,구서동,패스트푸드,051 513 4848,390098.4586,197419.0304,5.0,1,https://place.map.kakao.com/8131455#review,,,,4.4,리뷰 48개,https://goo.gl/maps/9ifgeuYxuCpdL8BW8,129.08673025361105,35.25807611694304
287,후라이드참잘하는집,부산광역시 금정구 구서동 166-17,금정구,구서동,호프/통닭,,390061.3529,197242.8861,0.0,1,https://place.map.kakao.com/1158533569#review,,,,,,,129.0862820738646,35.256496548161174
288,가마치(두실점),부산광역시 금정구 구서동 167-33번지,금정구,구서동,호프/통닭,,390153.266,197397.4796,0.0,1,https://place.map.kakao.com/1307653519#review,4.34,195,https://m.place.naver.com/share?id=1119048555&tabsPath=%2Fhome&appMode=detail,,,,129.08732714177148,35.25787160888957
289,돈비락,부산광역시 금정구 구서동 167-96번지,금정구,구서동,분식,051 337 1256,390147.847,197254.8082,0.0,2,https://place.map.kakao.com/399113510#review,4.28,18,https://m.place.naver.com/share?id=1396814654&tabsPath=%2Fhome&appMode=detail,4.3,리뷰 3개,https://goo.gl/maps/NNGqoRTxzPxhq7Vr9,129.087234651185,35.256587538717305
290,통큰노가리,부산광역시 금정구 구서동 175-13,금정구,구서동,호프/통닭,,390217.6493,197263.9043,0.0,0,https://place.map.kakao.com/1977432014#review,,,,3.8,리뷰 33개,https://goo.gl/maps/S6VC6HTj7MtduQGt5,129.0880032780888,35.25665623307991
291,금정수산,부산광역시 금정구 구서동 175-13번지,금정구,구서동,분식,051 5162939,390217.6493,197263.9043,0.0,0,https://place.map.kakao.com/16606764#review,,,,,,,129.0880032780888,35.25665623307991
292,동경,부산광역시 금정구 구서동 175-2번지,금정구,구서동,분식,,390181.8531,197395.3689,0.0,0,https://place.map.kakao.com/684720094#review,,,,,,,129.0876405836526,35.257847175712335
293,오월애,부산광역시 금정구 구서동 175-30번지,금정구,구서동,분식,,390196.6812,197260.3872,5.0,3,https://place.map.kakao.com/27536193#review,4.38,116,https://m.place.naver.com/share?id=37657815&tabsPath=%2Fhome&appMode=detail,4.1,리뷰 46개,https://goo.gl/maps/eTaS24AeipJ9um646,129.0877722066408,35.25662853022948
294,굽네치킨구서점,부산광역시 금정구 구서동 184-23번지 1층,금정구,구서동,통닭(치킨),051582 9922,390185.6336,197088.7358,5.0,1,https://place.map.kakao.com/17723276#review,,,,,,,129.08761120274406,35.25508449342093
295,오에스27(OS 27),부산광역시 금정구 구서동 185-1번지 선경아파트,금정구,구서동,호프/통닭,,390054.7699,197137.4762,,,,,,,,,,129.08618542915977,35.25554832628342
296,참대나무 숯불바베큐치킨&비어,부산광역시 금정구 구서동 192-27번지,금정구,구서동,통닭(치킨),051 518 2815,390056.9994,197038.2523,4.5,1,https://place.map.kakao.com/16810834#review,,,,,,,129.086186987315,35.25465415392524
297,열두달키친,부산광역시 금정구 구서동 192-50번지,금정구,구서동,분식,,390068.993,196984.219,0.0,0,https://place.map.kakao.com/652251718#review,,,,,,,129.08630620612237,35.25416518114169
298,비비큐치킨구서점,부산광역시 금정구 구서동 192-59,금정구,구서동,통닭(치킨),051 5124242,389993.595,197030.4737,5.0,3,https://place.map.kakao.com/18899333#review,,,,3.3,리뷰 8개,https://goo.gl/maps/KnEFrQ2RyodXeTFc6,129.0854889405849,35.25459610252451
299,소소반,부산광역시 금정구 구서동 194-9번지,금정구,구서동,분식,,390105.6736,197014.4356,0.0,1,https://place.map.kakao.com/1748307347#review,,,,,,,129.0867159796037,35.25443040199071
300,자담치킨&호프,부산광역시 금정구 구서동 201-40번지,금정구,구서동,호프/통닭,,390171.9581,196912.3213,5.0,1,https://place.map.kakao.com/117406440#review,,,,5.0,리뷰 1개,https://goo.gl/maps/4X6aP2XJMDgDctVt9,129.08742024860774,35.25349805095958
301,네네치킨구서점,부산광역시 금정구 구서동 203-32,금정구,구서동,통닭(치킨),051 582 4482,389953.0585,196935.8957,,,,,,,,,,129.0850219671309,35.253751878015855
302,맘스터치,부산광역시 금정구 구서동 252-15번지,금정구,구서동,통닭(치킨),051 513 8292,390176.6532,196389.2311,2.7,1,https://place.map.kakao.com/27535304#review,,,,,,,129.0873508990823,35.24878547602221
303,쌀통닭 구서점,부산광역시 금정구 구서동 252-31 1층일부,금정구,구서동,통닭(치킨),051 513 5235,390003.1435,196440.1511,,,,,,,,,,129.0854574666142,35.2492770138322
304,갓튀긴후라이드 금정점,부산광역시 금정구 구서동 252-32 구서골드1상가 B102호,금정구,구서동,호프/통닭,,390022.1767,196436.295,0.0,0,https://place.map.kakao.com/1756814595#review,4.62,21,https://m.place.naver.com/share?id=1474816000&tabsPath=%2Fhome&appMode=detail,,,,129.08566556786718,35.249238674945204
305,허씨횟집,부산광역시 금정구 구서동 252-32번지,금정구,구서동,분식,051 5821191,390022.1767,196436.295,,,,,,,,,,129.08566556786718,35.249238674945204
306,구서김밥,부산광역시 금정구 구서동 258-10번지 고려맨션,금정구,구서동,분식,051 583 4770,390076.9735,196326.6918,5.0,0,https://place.map.kakao.com/1202509863#review,,,,,,,129.0862419397955,35.248241051586426
307,명성손맛집,부산광역시 금정구 구서동 258-8번지,금정구,구서동,분식,,390094.5583,196353.7648,,,,,,,,,,129.086441279049,35.2484815771177
308,감탄떡볶이,부산광역시 금정구 구서동 368 (주)이마트금정점,금정구,구서동,분식,,390208.0926,196546.3563,0.0,0,https://place.map.kakao.com/679503846#review,,,,,,,129.08773243374563,35.25019480529521
309,BHC치킨 구서점,부산광역시 금정구 구서동 409-19번지,금정구,구서동,통닭(치킨),051 5161158,389961.9519,196179.1836,1.4,0,https://place.map.kakao.com/118088696#review,,,,,,,129.08494492465462,35.24693417087118
310,"이웃집칼국수,노랑고래 구서점",부산광역시 금정구 구서동 413-11 대흥상가아파트,금정구,구서동,분식,051 5149777,390015.7301,196014.2462,,,,,,,,,,129.08549733097615,35.245438325234915
311,프리츠펍18,부산광역시 금정구 구서동 413-11번지,금정구,구서동,호프/통닭,,390015.7301,196014.2462,,,,,,,,,,129.08549733097615,35.245438325234915
312,국수나무,부산광역시 금정구 구서동 413-1번지,금정구,구서동,통닭(치킨),051 513 3368,389971.0689,196155.8357,4.7,1,https://place.map.kakao.com/26878890#review,,,,4.0,리뷰 15개,https://goo.gl/maps/8Bg2L5si3ZL7d3PZ8,129.08503964030868,35.24672214000772
313,한사발 탕이랑 맛구이,부산광역시 금정구 구서동 413-2 대보 드림채,금정구,구서동,분식,,389979.0697,196130.9655,,,,,,,,,,129.08512174819217,35.246496608458045
314,부산양대창,부산광역시 금정구 구서동 413-32,금정구,구서동,호프/통닭,051 583 1933,390037.7089,196125.6674,0.0,0,https://place.map.kakao.com/963341617#review,,,,,,,129.08576438342035,35.24643777982877
315,썬더치킨(구서역점),부산광역시 금정구 구서동 413-55번지,금정구,구서동,호프/통닭,51,389997.4583,196154.7837,,,,,,,,,,129.08532915400943,35.246707666571304
316,미가곱창,부산광역시 금정구 구서동 414-39,금정구,구서동,통닭(치킨),051 5812939,390135.9586,196075.7048,,,,4.56,24,https://m.place.naver.com/share?id=1271385655&tabsPath=%2Fhome&appMode=detail,5.0,리뷰 1개,https://goo.gl/maps/vy3F7fd9qFmFbJgB7,129.08683162110802,35.24596912959494
317,수아헤,부산광역시 금정구 구서동 414-66,금정구,구서동,호프/통닭,,390135.7331,195991.6328,,,,,,,,,,129.08680972237656,35.24521190089311
318,와따포차,부산광역시 금정구 구서동 414-68번지,금정구,구서동,통닭(치킨),,390139.8694,196059.2595,0.0,0,https://place.map.kakao.com/2001172878#review,,,,,,,129.0868707619736,35.2458202587504
319,투다리,부산광역시 금정구 구서동 415-112,금정구,구서동,호프/통닭,051 5129291,390241.914,196123.0487,0.0,0,https://place.map.kakao.com/18168008#review,,,,,,,129.08800594680676,35.2463754885175
320,홍대맥주,부산광역시 금정구 구서동 415-118번지,금정구,구서동,호프/통닭,051 514 0003,390160.9236,195987.7282,5.0,0,https://place.map.kakao.com/1800366723#review,4.24,23,https://m.place.naver.com/share?id=37977983&tabsPath=%2Fhome&appMode=detail,,,,129.08708540738482,35.24517195610857
321,맛닭꼬(구서점),부산광역시 금정구 구서동 415-12번지,금정구,구서동,호프/통닭,,390180.3725,196057.7713,,,,,,,4.3,리뷰 3개,https://goo.gl/maps/HzzUNKaWCpXLDVWG7,129.0873151381222,35.24579917659402
322,700비어,부산광역시 금정구 구서동 415-1번지,금정구,구서동,호프/통닭,051 517 5001,390167.5758,196138.4288,0.0,0,https://place.map.kakao.com/18843460#review,,,,,,,129.08719326922878,35.246528117753044
323,구서 주택,부산광역시 금정구 구서동 415-22번지,금정구,구서동,호프/통닭,,390160.598,195962.7721,5.0,4,https://place.map.kakao.com/1908164920#review,,,,,,,129.0870760662638,35.244947227878704
324,호야문현곱창,부산광역시 금정구 구서동 415-22번지,금정구,구서동,호프/통닭,051 582 1510,390160.598,195962.7721,0.0,4,https://place.map.kakao.com/1703587562#review,4.51,86,https://m.place.naver.com/share?id=139276651&tabsPath=%2Fhome&appMode=detail,3.7,리뷰 6개,https://goo.gl/maps/CjUjMBGXhYzzJZru6,129.0870760662638,35.244947227878704
325,백년 가마솥 통닭,부산광역시 금정구 구서동 415-2번지,금정구,구서동,분식,051 5139177,390237.3734,196138.9236,4.0,4,https://place.map.kakao.com/1676746264#review,,,,4.3,리뷰 18개,https://goo.gl/maps/7PF7Pnb8mwrVDFTb9,129.08795976077056,35.24651934125837
326,25센치 꼬치앤오뎅,부산광역시 금정구 구서동 415-4 삼흥펠리스빌 101호,금정구,구서동,호프/통닭,051 512 2109,390179.4219,196100.7776,0.0,1,https://place.map.kakao.com/284542704#review,,,,,,,129.08731463865402,35.24618673226613
327,삼복국수,부산광역시 금정구 구서동 415-41번지,금정구,구서동,분식,,390162.0784,196043.2715,5.0,0,https://place.map.kakao.com/220256724#review,4.39,58,https://m.place.naver.com/share?id=1742188684&tabsPath=%2Fhome&appMode=detail,4.2,리뷰 13개,https://goo.gl/maps/k7TPm2DzTG94W9Yz6,129.08711092045283,35.24567203872794
328,포텐(4ten),부산광역시 금정구 구서동 415-42,금정구,구서동,호프/통닭,,390161.79,196030.6988,,,,,,,,,,129.08710484884168,35.24555884588186
329,화이트,부산광역시 금정구 구서동 420-25번지,금정구,구서동,호프/통닭,051 5150973,390300.7101,195774.1258,4.3,0,https://place.map.kakao.com/713812365#review,,,,,,,129.08857084929468,35.24322144665188
330,HONG 돈가스&국수,부산광역시 금정구 구서동 420-25번지,금정구,구서동,분식,,390300.7101,195774.1258,0.0,1,https://place.map.kakao.com/40074446#review,,,,4.4,리뷰 10개,https://goo.gl/maps/dPKDQP9Ca95TR47W8,129.08857084929468,35.24322144665188
331,꼬끼오(KKO),부산광역시 금정구 구서동 446-16,금정구,구서동,호프/통닭,,390107.8717,195884.1349,5.0,1,https://place.map.kakao.com/426041596#review,4.63,20,https://m.place.naver.com/share?id=1241102714&tabsPath=%2Fhome&appMode=detail,,,,129.08647897907906,35.24424890221835
332,수제 맥주점,부산광역시 금정구 구서동 446-1번지,금정구,구서동,호프/통닭,,390150.265,195942.8257,,,,,,,,,,129.0869580038373,35.244769520859286
333,면채움,부산광역시 금정구 구서동 446-3,금정구,구서동,분식,051 513 4443,390173.5582,195932.9176,3.6,44,https://place.map.kakao.com/26093894#review,4.48,454,https://m.place.naver.com/share?id=35816104&tabsPath=%2Fhome&appMode=detail,4.3,리뷰 425개,https://goo.gl/maps/rNEATSFLhkk1drGM9,129.08721146820517,35.24467585941905
334,고래실 찌개밥상,부산광역시 금정구 구서동 446-7,금정구,구서동,호프/통닭,,390137.1983,195925.0556,,,,,,,,,,129.08681042938977,35.24461193463186
335,비베레,부산광역시 금정구 구서동 457-22번지,금정구,구서동,통닭(치킨),051 518 0752,390107.1463,195921.8197,0.0,1,https://place.map.kakao.com/24451819#review,4.22,32,https://m.place.naver.com/share?id=35162504&tabsPath=%2Fhome&appMode=detail,4.5,리뷰 2개,https://goo.gl/maps/VpmmpmevC7he89Tq7,129.08647971873992,35.244588482465446
336,역전할머니맥주,부산광역시 금정구 구서동 457-29,금정구,구서동,호프/통닭,051 515 9289,390086.0036,195961.4766,3.0,2,https://place.map.kakao.com/1916000977#review,,,,,,,129.0862567363461,35.24494969488083
337,봉구비어구서점,부산광역시 금정구 구서동 457-4번지,금정구,구서동,호프/통닭,,390100.2556,195958.8049,5.0,1,https://place.map.kakao.com/22024051#review,,,,5.0,리뷰 1개,https://goo.gl/maps/vqigQrKJQpTc4wUV6,129.08641260321377,35.24492292934404
338,찹쌀로만든조시치킨 구서점,부산광역시 금정구 구서동 458-5 청효빌라,금정구,구서동,분식,,389957.444,196002.3357,0.0,1,https://place.map.kakao.com/795008916#review,4.7,30,https://m.place.naver.com/share?id=1624381439&tabsPath=%2Fhome&appMode=detail,,,,129.08485460846885,35.24534208012021
339,60계 부산구서점,부산광역시 금정구 구서동 458-5 청효빌라 101호,금정구,구서동,호프/통닭,,389957.444,196002.3357,5.0,19,https://place.map.kakao.com/1888497788#review,,,,5.0,리뷰 1개,https://goo.gl/maps/oH8cNnc1Ybiux3Xj7,129.08485460846885,35.24534208012021
340,비비큐(BBQ)금정점,부산광역시 금정구 구서동 461-22,금정구,구서동,호프/통닭,,389947.9867,195870.9259,0.0,0,https://place.map.kakao.com/1910706209#review,4.38,12,https://m.place.naver.com/share?id=1526555210&tabsPath=%2Fhome&appMode=detail,,,,129.08472044093233,35.24416020634308
341,스톰두마리치킨 구서점,부산광역시 금정구 구서동 461-25,금정구,구서동,호프/통닭,,389972.5629,195907.0856,,,,,,,,,,129.0849986261918,35.24448125901732
342,예가추어탕,부산광역시 금정구 구서동 464-5번지,금정구,구서동,분식,051 516 2001,390032.4195,195775.6939,0.0,0,https://place.map.kakao.com/21127388#review,,,,,,,129.08562549992135,35.243286422346834
343,가야밀면,부산광역시 금정구 구서동 470-13,금정구,구서동,분식,051 5816019,389952.1047,195802.1588,3.3,15,https://place.map.kakao.com/12734405#review,,,,3.8,리뷰 273개,https://goo.gl/maps/CFfFSb3sX9zY6rvD7,129.08474978507422,35.24354001184999
344,구서칼국수,부산광역시 금정구 구서동 470-14번지,금정구,구서동,분식,051 581 9890,389961.148,195795.4484,4.0,20,https://place.map.kakao.com/1772297176#review,,,,4.6,리뷰 104개,https://goo.gl/maps/aniKRCiAba8aRVW96,129.08484752829574,35.24347785621988
345,해숙이,부산광역시 금정구 구서동 470-14번지,금정구,구서동,분식,51,389961.148,195795.4484,0.0,0,https://place.map.kakao.com/434338995#review,,,,4.0,리뷰 1개,https://goo.gl/maps/Y5RWkPbB6tSwKN3m9,129.08484752829574,35.24347785621988
346,지코바 장전점,부산광역시 금정구 구서동 470-24,금정구,구서동,호프/통닭,,389895.5019,195747.8351,0.0,0,https://place.map.kakao.com/1798594084#review,,,,,,,129.08411577529907,35.243061409466044
347,골든비어,부산광역시 금정구 구서동 470-5번지,금정구,구서동,호프/통닭,051 581 5737,389886.987,195735.7935,0.0,5,https://place.map.kakao.com/1362300354#review,,,,4.0,리뷰 1개,https://goo.gl/maps/C2oYjUZZQg9gEuzZA,129.08401950759472,35.24295455707751
348,치킨을사랑한떡볶이,부산광역시 금정구 구서동 471-21,금정구,구서동,분식,,389852.2331,195755.516,0.0,2,https://place.map.kakao.com/601091664#review,4.64,14,https://m.place.naver.com/share?id=1780023475&tabsPath=%2Fhome&appMode=detail,,,,129.08364247483107,35.24313878308265
349,케이앤에스푸드(K&S푸드),부산광역시 금정구 구서동 472-18,금정구,구서동,분식,,389834.2253,195786.9101,,,,,,,,,,129.08345199752097,35.24342497084321
350,삼촌이하는 맥주집,부산광역시 금정구 구서동 653-17번지,금정구,구서동,호프/통닭,,389817.2967,197438.2857,4.0,0,https://place.map.kakao.com/86777216#review,,,,,,,129.08364709789493,35.2583028188057
351,통큰노가리 본점,부산광역시 금정구 구서동 653-20,금정구,구서동,호프/통닭,,389834.5051,197427.4356,0.0,0,https://place.map.kakao.com/1977432014#review,,,,3.8,리뷰 33개,https://goo.gl/maps/3gse2fYg1BoA1XqHA,129.08383356956543,35.258201829865044
352,새벽닭옛날통닭(두실점),부산광역시 금정구 구서동 653-20번지,금정구,구서동,호프/통닭,,389834.5051,197427.4356,5.0,0,https://place.map.kakao.com/27282676#review,,,,,,,129.08383356956543,35.258201829865044
353,면애랑,부산광역시 금정구 구서동 654-42번지,금정구,구서동,분식,051 583 3382,389910.2131,197463.8577,,,,,,,,,,129.08467337354287,35.258515563408345
354,디디씨(DDC)치킨 (구서점),부산광역시 금정구 구서동 654-50번지,금정구,구서동,통닭(치킨),,389882.5865,197419.1395,,,,4.52,21,https://m.place.naver.com/share?id=1183157038&tabsPath=%2Fhome&appMode=detail,,,,129.0843596646315,35.25811800000225
355,아가랑분식,부산광역시 금정구 구서동 654-52번지,금정구,구서동,분식,051 5123276,389905.9162,197419.8264,,,,4.46,25,https://m.place.naver.com/share?id=1300882837&tabsPath=%2Fhome&appMode=detail,,,,129.0846160201512,35.258119769250705
356,호식이두마리치킨 구서점,부산광역시 금정구 구서동 655-15번지,금정구,구서동,통닭(치킨),051 513 9188,389877.8803,197306.3354,3.7,0,https://place.map.kakao.com/22216987#review,,,,,,,129.08428194244473,35.257102818141966
357,더조은치킨,부산광역시 금정구 구서동 655-17번지,금정구,구서동,통닭(치킨),51,389895.8828,197392.5651,4.4,37,https://place.map.kakao.com/22378425#review,4.44,96,https://m.place.naver.com/share?id=1609623430&tabsPath=%2Fhome&appMode=detail,4.1,리뷰 50개,https://goo.gl/maps/qHUEQ6mKfXZMxwbg9,129.08449954363226,35.25787611562761
358,삼촌이 하는 맥주집,부산광역시 금정구 구서동 656-1번지 1층일부,금정구,구서동,호프/통닭,,389819.4593,197403.4376,4.0,0,https://place.map.kakao.com/86777216#review,,,,,,,129.0836628043477,35.257988518142604
359,두손돈까스,부산광역시 금정구 구서동 718-9번지,금정구,구서동,분식,051 516 2666,389939.0355,196510.1844,3.3,1,https://place.map.kakao.com/26628523#review,4.48,44,https://m.place.naver.com/share?id=1553425169&tabsPath=%2Fhome&appMode=detail,4.5,리뷰 15개,https://goo.gl/maps/ogaxngnAWuRjPkqM7,129.08476970216773,35.24991997435881
360,고봉민김밥인 구서점,부산광역시 금정구 구서동 718-9번지 골드2상가 102호,금정구,구서동,분식,,389939.0355,196510.1844,3.5,0,https://place.map.kakao.com/17014784#review,,,,,,,129.08476970216773,35.24991997435881
361,코리엔탈 깻잎두마리치킨(금정점),부산광역시 금정구 구서동 731-15,금정구,구서동,호프/통닭,,389840.6828,197281.6766,0.0,0,https://place.map.kakao.com/153413752#review,4.29,24,https://m.place.naver.com/share?id=1383575770&tabsPath=%2Fhome&appMode=detail,,,,129.0838677689865,35.2568877486131
362,신전떡볶이구서점,부산광역시 금정구 구서동 735-29,금정구,구서동,분식,,389915.9394,197193.8838,0.0,2,https://place.map.kakao.com/1942795205#review,,,,4.5,리뷰 6개,https://goo.gl/maps/SBkPaiixamx8uFPq6,129.0846739230056,35.25608271325242
363,산들가는길,부산광역시 금정구 구서동 742-17번지,금정구,구서동,분식,,389916.0448,197066.9716,5.0,0,https://place.map.kakao.com/21685981#review,,,,,,,129.0846457800641,35.254939542682315
364,제육의고수,부산광역시 금정구 구서동 742-35,금정구,구서동,호프/통닭,051  5827784,389886.8163,197146.3045,,,,,,,,,,129.08434313019325,35.25565966161531
365,황금메밀국수,부산광역시 금정구 구서동 742-35번지,금정구,구서동,분식,051 513 4849,389886.8163,197146.3045,,,,,,,,,,129.08434313019325,35.25565966161531
366,피자알볼로 구서점,부산광역시 금정구 구서동 775-15번지,금정구,구서동,패스트푸드,051 518 8495,389987.3191,196357.2464,0.0,7,https://place.map.kakao.com/19532759#review,,,,,,,129.08526456742374,35.24853325370671
367,포장마차분식,부산광역시 금정구 구서동 775-20번지,금정구,구서동,분식,51,390003.6832,196328.166,,,,,,,,,,129.08543753524555,35.24826821492643
368,푸라닭(부산구서점),부산광역시 금정구 구서동 775-8번지,금정구,구서동,호프/통닭,051 513 9206,389967.4954,196420.3376,0.0,2,https://place.map.kakao.com/1645064210#review,4.49,109,https://m.place.naver.com/share?id=1522170803&tabsPath=%2Fhome&appMode=detail,,,,129.0850614627044,35.24910529702697
369,맛있어요,부산광역시 금정구 구서동 84-1번지 1층일부,금정구,구서동,분식,051 515 3325,390320.7319,196135.6792,3.4,0,https://place.map.kakao.com/12759813#review,4.33,62,https://m.place.naver.com/share?id=1089926259&tabsPath=%2Fhome&appMode=detail,3.0,리뷰 1개,https://goo.gl/maps/G93mFvVzrD9ScYQv8,129.08887428561755,35.24647430683155
370,장충동왕족발(구서점),부산광역시 금정구 구서동 844-4번지,금정구,구서동,통닭(치킨),051 5137721,389976.2379,197535.2461,0.0,0,https://place.map.kakao.com/21657161#review,,,,,,,129.08541492272855,35.25914608104617
371,소문난촌국수,부산광역시 금정구 구서동 85-1,금정구,구서동,분식,,390308.7108,196345.2611,0.0,0,https://place.map.kakao.com/16636529#review,4.5,10,https://m.place.naver.com/share?id=16886120&tabsPath=%2Fhome&appMode=detail,3.0,리뷰 1개,https://goo.gl/maps/53zECp54EBqjugdUA,129.08879076132553,35.248364375670526
372,카페아낙,부산광역시 금정구 구서동 86-15번지,금정구,구서동,호프/통닭,051 513 5519,390231.6984,196266.7842,,,,,,,,,,129.08792700545405,35.2476721098626
373,닭한마리,부산광역시 금정구 구서동 86-16번지,금정구,구서동,통닭(치킨),051 513 2310,390231.4989,196253.3084,5.0,16,https://place.map.kakao.com/1074076257#review,,,,,,,129.0879216997867,35.247550765690335
374,라운지 233,부산광역시 금정구 구서동 86-23번지,금정구,구서동,호프/통닭,51,390242.306,196181.7522,,,,,,,,,,129.08802382124915,35.24690418050281
375,왕자맥주,부산광역시 금정구 구서동 86-36,금정구,구서동,호프/통닭,051 516 9033,390240.1988,196210.526,0.0,6,https://place.map.kakao.com/960756684#review,4.55,37,https://m.place.naver.com/share?id=1223895988&tabsPath=%2Fhome&appMode=detail,,,,129.08800733570516,35.24716375742226
376,더바다,부산광역시 금정구 구서동 86-4번지,금정구,구서동,호프/통닭,,390254.8375,196352.2992,,,,,,,,,,129.08820084701367,35.24843798980164
377,샐러디부산구서역점,부산광역시 금정구 구서동 86-55,금정구,구서동,분식,51,390227.6089,196179.9526,0.0,1,https://place.map.kakao.com/1855257770#review,,,,,,,129.0878620304891,35.246890757801594
378,가마치 옛날통닭(구서역점),부산광역시 금정구 구서동 86-77번지,금정구,구서동,호프/통닭,,390252.1476,196294.0621,,,,,,,,,,129.08815784705408,35.24791393488531
379,진영푸드(주)피자헛 구서점,부산광역시 금정구 구서동 86-89번지,금정구,구서동,패스트푸드,051 5825237,390231.4477,196353.8761,,,,,,,,,,129.08794438574154,35.24845662945661
380,이레김밥,부산광역시 금정구 구서동 87-31,금정구,구서동,분식,,390109.3507,196201.6783,5.0,2,https://place.map.kakao.com/1470993909#review,4.82,74,https://m.place.naver.com/share?id=1773176887&tabsPath=%2Fhome&appMode=detail,,,,129.08656856874725,35.24710886780832
381,상주식당,부산광역시 금정구 구서동 87-9,금정구,구서동,호프/통닭,,390134.2185,196227.6251,,,,,,,,,,129.08684761393252,35.247337868408565
382,명랑시대쌀핫도그구서점,부산광역시 금정구 구서동 87-9번지,금정구,구서동,호프/통닭,051 514 1680,390134.2185,196227.6251,4.4,3,https://place.map.kakao.com/1843933650#review,,,,,,,129.08684761393252,35.247337868408565
383,신 김밥천국,부산광역시 금정구 금사동 131-4번지,금정구,금사동,분식,051 529 6151,392150.9208,193217.9715,3.0,0,https://place.map.kakao.com/21341942#review,4.35,23,https://m.place.naver.com/share?id=36649657&tabsPath=%2Fhome&appMode=detail,,,,129.1082887627135,35.21984473494947
384,황금길목,부산광역시 금정구 금사동 137-1번지,금정구,금사동,호프/통닭,051 5230553,392179.83,193250.9171,,,,,,,,,,129.10861376075496,35.22013595458806
385,동근이 두마리치킨,부산광역시 금정구 금사동 144-1번지,금정구,금사동,호프/통닭,,392170.6043,192617.1476,5.0,1,https://place.map.kakao.com/1804576345#review,,,,,,,129.10836471960957,35.214429147180034
386,꽃돼지분식,부산광역시 금정구 금사동 34-4번지,금정구,금사동,분식,051 5310811,392347.3345,193549.6129,0.0,1,https://place.map.kakao.com/21430100#review,,,,,,,129.11052206311288,35.22279433064911
387,금당식당,부산광역시 금정구 금사동 50-8번지,금정구,금사동,호프/통닭,051 542 1729,392305.0532,193373.6313,0.0,3,https://place.map.kakao.com/21431049#review,,,,4.4,리뷰 21개,https://goo.gl/maps/QQbLDzcG3q5dRkNaA,129.1100168844258,35.22121730742241
388,마당쇠구이,부산광역시 금정구 금사동 68-10,금정구,금사동,통닭(치킨),051 5221953,392246.6594,193302.1728,0.0,0,https://place.map.kakao.com/23403590#review,4.35,10,https://m.place.naver.com/share?id=35112285&tabsPath=%2Fhome&appMode=detail,,,,129.10935925734714,35.220584839162626
389,정민이네 도시락,부산광역시 금정구 금사동 68-14번지,금정구,금사동,통닭(치킨),051 5230023,392275.2341,193287.0369,,,,,,,,,,129.1096693713393,35.22044303420682
390,옛날통닭,부산광역시 금정구 금사동 68-27번지,금정구,금사동,분식,051 5220382,392186.9663,193219.0786,0.0,0,https://place.map.kakao.com/1236469491#review,,,,,,,129.10868466539122,35.2198478090133
391,와보래분식,부산광역시 금정구 금사동 68-29번지,금정구,금사동,분식,51,392191.4195,193203.9626,4.5,3,https://place.map.kakao.com/21430730#review,,,,4.6,리뷰 20개,https://goo.gl/maps/akDvWgNXGFH1buhH9,129.10873001939186,35.219710801959465
392,소문난칼국수,부산광역시 금정구 금사동 68-31번지,금정구,금사동,분식,51,392212.158,193184.1996,3.3,3,https://place.map.kakao.com/15422862#review,,,,4.1,리뷰 33개,https://goo.gl/maps/2faszJVckCLUGcZ48,129.10895304026397,35.21952882082379
393,대왕고기전문점,부산광역시 금정구 금사동 68-34번지,금정구,금사동,호프/통닭,051 5255441,392299.3211,193337.6748,0.0,0,https://place.map.kakao.com/42438146#review,,,,,,,129.10994557523745,35.22089453352465
394,퇴근길,부산광역시 금정구 금사동 68-4번지,금정구,금사동,호프/통닭,051 5243391,392265.9172,193332.3726,0.0,0,https://place.map.kakao.com/290759929#review,,,,,,,129.10957768402037,35.22085317136736
395,명성분식,부산광역시 금정구 금사동 68-4번지,금정구,금사동,분식,,392265.9172,193332.3726,0.0,1,https://place.map.kakao.com/1927919252#review,4.77,159,https://m.place.naver.com/share?id=759848347&tabsPath=%2Fhome&appMode=detail,,,,129.10957768402037,35.22085317136736
396,양지분식,부산광역시 금정구 금사동 68-8번지,금정구,금사동,분식,51,392260.8393,193312.256,,,,,,,,,,129.10951725342824,35.22067294694206
397,구포국수 탑마트금사점,부산광역시 금정구 금사동 85-7번지 탑마트,금정구,금사동,분식,,392147.8853,192919.3641,0.0,0,https://place.map.kakao.com/410011918#review,,,,4.1,리뷰 580개,https://goo.gl/maps/9bcCnRYdbzbTjad68,129.1081858215258,35.21715565964016
398,화끈한얼큰이,부산광역시 금정구 남산동 1000-2번지,금정구,남산동,통닭(치킨),051 5815559,389864.7753,197921.5263,,,,,,,,,,129.08428005267277,35.26264657556606
399,태리로제떡볶이,부산광역시 금정구 남산동 101-10,금정구,남산동,분식,,390123.0837,198421.0879,0.0,0,https://place.map.kakao.com/45300891#review,,,,,,,129.0872323545414,35.26709736944619
400,올레,부산광역시 금정구 남산동 101-29,금정구,남산동,호프/통닭,051 517 0468,390179.5169,198438.2216,1.0,0,https://place.map.kakao.com/433167496#review,,,,,,,129.08785611070385,35.267240994404546
401,불닭발 동대문 엽기떡볶이(남산점),부산광역시 금정구 남산동 101-32번지,금정구,남산동,분식,,390168.244,198417.2958,2.3,4,https://place.map.kakao.com/409343775#review,4.44,157,https://m.place.naver.com/share?id=1107538858&tabsPath=%2Fhome&appMode=detail,,,,129.08772746250264,35.267054646421784
402,꼴닭,부산광역시 금정구 남산동 101-33번지,금정구,남산동,통닭(치킨),051 582 5392,390180.1942,198417.358,0.0,0,https://place.map.kakao.com/21240701#review,,,,3.6,리뷰 33개,https://goo.gl/maps/QpPFK4Jm1MHRk3DZ9,129.0878587230782,35.26705293959263
403,밀면전문점,부산광역시 금정구 남산동 103-10번지,금정구,남산동,분식,051 5824345,390199.2828,198419.1303,4.2,9,https://place.map.kakao.com/16973927#review,,,,4.3,리뷰 44개,https://goo.gl/maps/Xa624WQ99w4QbwxR7,129.08806877859172,35.267065281747115
404,봉구비어 남산점,부산광역시 금정구 남산동 103-37번지,금정구,남산동,호프/통닭,,390240.9664,198413.9843,2.0,0,https://place.map.kakao.com/20912938#review,,,,,,,129.08852538872253,35.267011020041934
405,도쿄바나나 이자카야,부산광역시 금정구 남산동 105-25번지,금정구,남산동,호프/통닭,051 517 1103,390215.9426,198383.0769,0.0,1,https://place.map.kakao.com/364435424#review,,,,4.0,리뷰 6개,https://goo.gl/maps/CUXW19qMvK7eVKix9,129.08824340766077,35.26673737413094
406,깐풍통닭,부산광역시 금정구 남산동 105-34,금정구,남산동,호프/통닭,,390205.3333,198334.4959,5.0,30,https://place.map.kakao.com/1456909855#review,4.45,11,https://m.place.naver.com/share?id=1406964602&tabsPath=%2Fhome&appMode=detail,,,,129.08811564961337,35.2663017998305
407,남해횟집,부산광역시 금정구 남산동 105-6번지,금정구,남산동,호프/통닭,051 527 1788,390319.1909,198370.8575,0.0,4,https://place.map.kakao.com/18765233#review,4.41,65,https://m.place.naver.com/share?id=32801196&tabsPath=%2Fhome&appMode=detail,,,,129.0893745251103,35.26660771273664
408,월화수,부산광역시 금정구 남산동 105-6번지,금정구,남산동,분식,051 512 6501,390319.1909,198370.8575,5.0,0,https://place.map.kakao.com/12089713#review,,,,,,,129.0893745251103,35.26660771273664
409,팔복통닭,부산광역시 금정구 남산동 105-6번지,금정구,남산동,통닭(치킨),051 5145533,390319.1909,198370.8575,0.0,2,https://place.map.kakao.com/27333673#review,4.53,17,https://m.place.naver.com/share?id=37389244&tabsPath=%2Fhome&appMode=detail,5.0,리뷰 1개,https://goo.gl/maps/mFL1rmn5dbNJdvGr7,129.0893745251103,35.26660771273664
410,국수일번지,부산광역시 금정구 남산동 10-9번지 1층일부,금정구,남산동,분식,,390280.6828,197427.8357,,,,,,,,,,129.0887333944042,35.25812086833559
411,감자깡,부산광역시 금정구 남산동 112-2번지 천일상가 106호,금정구,남산동,호프/통닭,051 513 1496,390120.1439,198369.1471,5.0,0,https://place.map.kakao.com/21341874#review,,,,3.0,리뷰 1개,https://goo.gl/maps/PyKxNofeeveHACUv8,129.08718805616147,35.26663007640527
412,부리나치킨,부산광역시 금정구 남산동 112-6번지,금정구,남산동,통닭(치킨),051 512 9289,390162.2116,198385.613,0.0,3,https://place.map.kakao.com/8325056#review,,,,,,,129.08765388185384,35.26677041180249
413,즉석김밥,부산광역시 금정구 남산동 115-30번지,금정구,남산동,분식,051 5157828,389811.7625,198130.8052,4.0,14,https://place.map.kakao.com/72967189#review,,,,,,,129.0837461650302,35.264541673396124
414,가마치통닭(남산점),부산광역시 금정구 남산동 116-31번지,금정구,남산동,호프/통닭,,390232.4916,198188.0197,5.0,1,https://place.map.kakao.com/1506006530#review,4.43,61,https://m.place.naver.com/share?id=1164667714&tabsPath=%2Fhome&appMode=detail,,,,129.08838002950998,35.26497728025633
415,스완,부산광역시 금정구 남산동 117-10번지,금정구,남산동,통닭(치킨),051 5150682,390299.6964,198195.2349,,,,,,,,,,129.08911977433783,35.26502951556498
416,봉구스밥버거앤텐더크래커부산외대점,부산광역시 금정구 남산동 117-11번지,금정구,남산동,분식,051 514 5094,390288.165,198179.9526,,,,,,,,,,129.08898959418082,35.26489405102382
417,가촌치킨,부산광역시 금정구 남산동 117-9번지,금정구,남산동,통닭(치킨),051 5837013,390266.5443,198192.6806,0.0,0,https://place.map.kakao.com/20306213#review,,,,,,,129.08875509098286,35.2650128004871
418,황정미칼국수,부산광역시 금정구 남산동 120-1번지 2층,금정구,남산동,분식,070 47953611,390252.5541,198159.9803,,,,,,,,,,129.08859387748467,35.26472091166639
419,남산핏자,부산광역시 금정구 남산동 122-10번지 경동아파트,금정구,남산동,분식,,390162.0064,198133.9871,5.0,2,https://place.map.kakao.com/1223717655#review,4.67,26,https://m.place.naver.com/share?id=1822102681&tabsPath=%2Fhome&appMode=detail,4.6,리뷰 30개,https://goo.gl/maps/iFRVARGf4SpQ6SPK8,129.08759343080138,35.26450396040925
420,국대후라이드 남산점,부산광역시 금정구 남산동 122-14,금정구,남산동,호프/통닭,051 946 3400,390158.2414,198173.4759,0.0,0,https://place.map.kakao.com/82141460#review,4.45,19,https://m.place.naver.com/share?id=1335074638&tabsPath=%2Fhome&appMode=detail,,,,129.08756121456938,35.26486036528576
421,노들,부산광역시 금정구 남산동 122-8번지,금정구,남산동,분식,,390230.8129,198164.3726,0.0,0,https://place.map.kakao.com/21430219#review,,,,,,,129.08835612222555,35.2647646004332
422,월드돈까스,부산광역시 금정구 남산동 124-9 신암빌,금정구,남산동,분식,,390000.7682,198142.6673,5.0,0,https://place.map.kakao.com/20696433#review,4.58,32,https://m.place.naver.com/share?id=1228434275&tabsPath=%2Fhome&appMode=detail,4.2,리뷰 6개,https://goo.gl/maps/ryEQZY1t7Fx9ppdi6,129.08582464993728,35.26461271731192
423,꾸브라꼬,부산광역시 금정구 남산동 126-13,금정구,남산동,호프/통닭,,389959.2234,197866.8648,0.0,0,https://place.map.kakao.com/2035212170#review,4.42,12,https://m.place.naver.com/share?id=1088616783&tabsPath=%2Fhome&appMode=detail,,,,129.0853046723583,35.26213632735677
424,782 숯불쪽갈비,부산광역시 금정구 남산동 126-13번지,금정구,남산동,분식,,389959.2234,197866.8648,0.0,0,https://place.map.kakao.com/1826014459#review,4.48,26,https://m.place.naver.com/share?id=1610742057&tabsPath=%2Fhome&appMode=detail,,,,129.0853046723583,35.26213632735677
425,엄마손밥상,부산광역시 금정구 남산동 129-10,금정구,남산동,분식,051 512 9838,390174.7866,197705.448,0.0,6,https://place.map.kakao.com/26437581#review,4.53,18,https://m.place.naver.com/share?id=19682739&tabsPath=%2Fhome&appMode=detail,4.6,리뷰 5개,https://goo.gl/maps/gvjkhwgCakZ1ZRW9A,129.0876346817572,35.260641519451404
426,알통떡강정 부산남산점,부산광역시 금정구 남산동 15-30번지,금정구,남산동,분식,051 5170672,390190.9407,198994.4082,0.0,0,https://place.map.kakao.com/999718432#review,,,,,,,129.08811025927056,35.27224860680454
427,부산모밀,부산광역시 금정구 남산동 17-26번지 1층,금정구,남산동,분식,051 512 8255,390021.8778,199074.9597,3.0,15,https://place.map.kakao.com/12533843#review,4.51,319,https://m.place.naver.com/share?id=16607264&tabsPath=%2Fhome&appMode=detail,4.2,리뷰 226개,https://goo.gl/maps/1Zj57YrRm8xCgAeg8,129.086271985355,35.27300623248543
428,우리마을돼지국밥,부산광역시 금정구 남산동 17-33번지,금정구,남산동,분식,51,390025.4173,199025.0964,5.0,0,https://place.map.kakao.com/26858524#review,4.68,11,https://m.place.naver.com/share?id=36855633&tabsPath=%2Fhome&appMode=detail,3.8,리뷰 4개,https://goo.gl/maps/evQW6zQY4vvRLYRa6,129.0862993332905,35.27255642380872
429,척척네,부산광역시 금정구 남산동 18-16번지,금정구,남산동,호프/통닭,070 89026265,390053.6539,198880.8635,5.0,0,https://place.map.kakao.com/16780181#review,4.35,33,https://m.place.naver.com/share?id=33411826&tabsPath=%2Fhome&appMode=detail,3.4,리뷰 18개,https://goo.gl/maps/XJuDRxcRA9YK9sDdA,129.0865761200892,35.2712519095523
430,네네치킨남산점,부산광역시 금정구 남산동 188-6번지,금정구,남산동,통닭(치킨),051 518 4492,390095.73,198043.5935,0.0,0,https://place.map.kakao.com/8228667#review,,,,3.4,리뷰 14개,https://goo.gl/maps/KZVhbhyeTw8XFh4v7,129.0868446575769,35.26370231942834
431,가마치통닭(남산점),부산광역시 금정구 남산동 196-2번지,금정구,남산동,호프/통닭,5105189029,389954.4141,198988.6382,5.0,1,https://place.map.kakao.com/1506006530#review,4.43,61,https://m.place.naver.com/share?id=1164667714&tabsPath=%2Fhome&appMode=detail,,,,129.0855110425464,35.27224149063082
432,남산분식,부산광역시 금정구 남산동 196-2번지,금정구,남산동,분식,051 5163560,389954.4141,198988.6382,1.8,2,https://place.map.kakao.com/27074689#review,,,,,,,129.0855110425464,35.27224149063082
433,어게인2010,부산광역시 금정구 남산동 196-3,금정구,남산동,호프/통닭,051 5175711,389968.0101,198998.1873,0.0,0,https://place.map.kakao.com/15850228#review,,,,,,,129.0856625809254,35.27232492610563
434,김밥천국 팔송점,부산광역시 금정구 남산동 20-1번지,금정구,남산동,분식,051 5183114,390104.5891,198966.8664,0.0,3,https://place.map.kakao.com/8795085#review,,,,,,,129.08715544944351,35.272016910249235
435,춘하추동 칼국수 남산점,부산광역시 금정구 남산동 20-27번지,금정구,남산동,통닭(치킨),,390234.1447,198967.2049,3.7,8,https://place.map.kakao.com/792127621#review,4.38,125,https://m.place.naver.com/share?id=1255080564&tabsPath=%2Fhome&appMode=detail,,,,129.08857849244285,35.27199537723077
436,부부도매횟집,부산광역시 금정구 남산동 20-39번지,금정구,남산동,호프/통닭,051 5148246,390132.1263,198969.5764,5.0,1,https://place.map.kakao.com/27532772#review,4.33,69,https://m.place.naver.com/share?id=1499411602&tabsPath=%2Fhome&appMode=detail,,,,129.087458529334,35.2720360966908
437,날마다좋은날분식,부산광역시 금정구 남산동 207-22번지,금정구,남산동,분식,,389930.2068,198994.1071,,,,,,,,,,129.08524642594475,35.27229533879208
438,수미김밥 칼국수,부산광역시 금정구 남산동 207-5번지,금정구,남산동,분식,,389926.3405,199078.1083,1.0,1,https://place.map.kakao.com/784253363#review,4.62,21,https://m.place.naver.com/share?id=1726411908&tabsPath=%2Fhome&appMode=detail,4.0,리뷰 2개,https://goo.gl/maps/ykMQUxQVkcg1W5Vd8,129.08522337139814,35.27305270254435
439,백년옛날통닭 남산점,부산광역시 금정구 남산동 21-11,금정구,남산동,호프/통닭,,390314.9063,198976.9688,0.0,0,https://place.map.kakao.com/106136908#review,4.35,30,https://m.place.naver.com/share?id=1862480825&tabsPath=%2Fhome&appMode=detail,,,,129.08946779162815,35.2720679919497
440,범어사떡볶이,부산광역시 금정구 남산동 21-11번지,금정구,남산동,분식,051 515 6224,390314.9063,198976.9688,4.0,9,https://place.map.kakao.com/21337571#review,,,,4.1,리뷰 14개,https://goo.gl/maps/NBxQ6sZ31SvDJBsU7,129.08946779162815,35.2720679919497
441,통큰노가리,부산광역시 금정구 남산동 21-4번지,금정구,남산동,호프/통닭,,390321.7061,198928.6398,0.0,0,https://place.map.kakao.com/1977432014#review,,,,,,,129.0895312861248,35.27163138400763
442,다가치통닭 범어사역점,부산광역시 금정구 남산동 21-8 나경위너스 101호,금정구,남산동,호프/통닭,,390273.5148,198925.2553,,,,,,,5.0,리뷰 1개,https://goo.gl/maps/B7D981qbqdsVLEmf9,129.089001199828,35.27161004849119
443,옛날통닭,부산광역시 금정구 남산동 225-19,금정구,남산동,호프/통닭,,390275.1627,197947.8267,0.0,0,https://place.map.kakao.com/752255848#review,,,,,,,129.08879308237465,35.26280567348909
444,거북이만두,부산광역시 금정구 남산동 23-12번지,금정구,남산동,분식,051 513 1811,390374.6838,198868.4413,5.0,4,https://place.map.kakao.com/1548925837#review,,,,5.0,리뷰 1개,https://goo.gl/maps/y4e8xe2KpxNr4nUT7,129.09009921694454,35.271079093213174
445,본아베띠돈까스,부산광역시 금정구 남산동 23-6번지,금정구,남산동,분식,051 3435012,390388.1673,198905.2679,,,,,,,,,,129.09025584003234,35.27140824242137
446,깨소금분식,부산광역시 금정구 남산동 24-16번지,금정구,남산동,분식,051 505 2107,390282.4418,198859.3197,,,,,,,,,,129.08908398448128,35.271014447786406
447,정가네국수,부산광역시 금정구 남산동 256-18번지,금정구,남산동,분식,051 5151570,390416.6684,198311.1967,5.0,0,https://place.map.kakao.com/16694563#review,,,,4.3,리뷰 6개,https://goo.gl/maps/aVHwfXve6o3k6BfbA,129.0904312721254,35.266051815110494
448,옥이분식,부산광역시 금정구 남산동 256-34번지,금정구,남산동,분식,051 541 2956,390445.1201,198326.2669,,,,,,,,,,129.09074723671193,35.2661821531678
449,순수치킨 부산구서남산점,부산광역시 금정구 남산동 256-6번지,금정구,남산동,호프/통닭,,390403.0154,198318.4295,0.0,8,https://place.map.kakao.com/1883606491#review,,,,,,,129.09028300157942,35.26611955682054
450,크루즈,부산광역시 금정구 남산동 258-4번지,금정구,남산동,호프/통닭,051 9689976,390449.3467,198262.409,0.0,0,https://place.map.kakao.com/26316722#review,,,,,,,129.0907788639654,35.265606158968794
451,밥한그릇,부산광역시 금정구 남산동 26-15번지,금정구,남산동,호프/통닭,051 5838842,390219.7041,198893.1217,0.0,0,https://place.map.kakao.com/15857598#review,4.69,21,https://m.place.naver.com/share?id=1934963544&tabsPath=%2Fhome&appMode=detail,,,,129.08840274057863,35.27133082344006
452,복실이,부산광역시 금정구 남산동 262-18번지,금정구,남산동,분식,051 515 7382,390462.715,198136.8371,,,,,,,,,,129.0908965939031,35.264472547562285
453,치킨신드롬,부산광역시 금정구 남산동 26-24번지,금정구,남산동,통닭(치킨),051 5179979,390188.269,198897.038,0.0,0,https://place.map.kakao.com/13148220#review,,,,,,,129.0880583844982,35.271372064468665
454,준이네국수,부산광역시 금정구 남산동 27-50 성진빌라,금정구,남산동,분식,,390222.8391,198837.3818,0.0,0,https://place.map.kakao.com/1187566368#review,,,,4.0,리뷰 1개,https://goo.gl/maps/qcP7dKbwyGtXeGKFA,129.08842427392497,35.27082815865914
455,정든집,부산광역시 금정구 남산동 332-1,금정구,남산동,호프/통닭,,389964.6612,198651.4976,0.0,0,https://place.map.kakao.com/10717776#review,,,,,,,129.08554567702294,35.26920279329331
456,전포면옥,부산광역시 금정구 남산동 332-31번지 1층,금정구,남산동,통닭(치킨),051 517 9297,390010.9615,198560.7378,3.3,7,https://place.map.kakao.com/1482731364#review,4.21,77,https://m.place.naver.com/share?id=1139274321&tabsPath=%2Fhome&appMode=detail,4.2,리뷰 15개,https://goo.gl/maps/Y15T5sWxZf2gvT8S8,129.08603321818757,35.2683765090361
457,황금오리,부산광역시 금정구 남산동 332-5,금정구,남산동,분식,051 5137935,390000.2061,198621.803,5.0,1,https://place.map.kakao.com/190594724#review,,,,,,,129.08592920571604,35.26892858558263
458,제일통닭,부산광역시 금정구 남산동 374-68번지 현대그레이스 상가동,금정구,남산동,호프/통닭,,390500.72,198657.0505,,,,,,,,,,129.09143451854982,35.26915107470144
459,쉼터,부산광역시 금정구 남산동 374-75번지,금정구,남산동,분식,051 580 1063,390521.5085,198471.0769,0.0,0,https://place.map.kakao.com/657434666#review,,,,,,,129.0916197390593,35.26747199359745
460,BHC치킨,부산광역시 금정구 남산동 45-24번지,금정구,남산동,호프/통닭,051 516 8892,390097.0872,198758.8242,3.7,0,https://place.map.kakao.com/1448241608#review,,,,5.0,리뷰 2개,https://goo.gl/maps/h2S41bx578dXdUb89,129.087024939211,35.27014441883456
461,장수통닭,부산광역시 금정구 남산동 45-31번지,금정구,남산동,통닭(치킨),,390142.493,198711.8635,0.0,9,https://place.map.kakao.com/23347182#review,4.22,48,https://m.place.naver.com/share?id=1479078174&tabsPath=%2Fhome&appMode=detail,4.6,리뷰 14개,https://goo.gl/maps/Jb1voNvucofjqYfb8,129.0875127768232,35.269712813690525
462,썬더치킨(남산1호점),부산광역시 금정구 남산동 481-20번지,금정구,남산동,통닭(치킨),051 5177348,390006.9227,198391.6926,0.0,1,https://place.map.kakao.com/18648645#review,4.56,47,https://m.place.naver.com/share?id=31430463&tabsPath=%2Fhome&appMode=detail,,,,129.08594979062462,35.26685461900786
463,지,부산광역시 금정구 남산동 481-22번지,금정구,남산동,분식,51,390011.8025,198374.0978,0.0,0,https://place.map.kakao.com/15987108#review,,,,,,,129.08599931779654,35.266695210864754
464,시키면돼지&두마리치킨,부산광역시 금정구 남산동 482-20,금정구,남산동,통닭(치킨),051 5148292,389945.0454,198091.0182,0.0,1,https://place.map.kakao.com/1949387260#review,,,,,,,129.08520074585675,35.2641580524947
465,미숙이네국수,부산광역시 금정구 남산동 48-31번지,금정구,남산동,분식,,390273.3879,198732.061,0.0,0,https://place.map.kakao.com/953458362#review,,,,,,,129.0889550856178,35.26986990092309
466,옛맛손칼국수,부산광역시 금정구 남산동 73-45,금정구,남산동,분식,,390227.4759,198023.8598,0.0,2,https://place.map.kakao.com/23715087#review,,,,,,,129.0882869664601,35.26349958155492
467,냠냠숯불 두마리치킨,부산광역시 금정구 남산동 73-68,금정구,남산동,호프/통닭,,390139.4982,197985.6601,5.0,2,https://place.map.kakao.com/1790643918#review,4.45,22,https://m.place.naver.com/share?id=1036813604&tabsPath=%2Fhome&appMode=detail,,,,129.08731193753664,35.263172191109554
468,노랑통닭,부산광역시 금정구 남산동 84-2번지,금정구,남산동,통닭(치킨),051 516 4489,390134.653,198655.1091,0.0,0,https://place.map.kakao.com/18725775#review,,,,3.2,리뷰 6개,https://goo.gl/maps/Jnhv7Xes7jgAxfqP6,129.08741354210045,35.26920309265609
469,치킨플러스 남산점,부산광역시 금정구 남산동 85-12번지,금정구,남산동,호프/통닭,,390220.931,198569.2511,0.0,0,https://place.map.kakao.com/2095208472#review,,,,,,,129.088341270658,35.2684133682071
470,블레드치킨 남산점,부산광역시 금정구 남산동 91-16,금정구,남산동,호프/통닭,,390336.7365,198532.6137,0.0,3,https://place.map.kakao.com/1011382826#review,,,,3.7,리뷰 3개,https://goo.gl/maps/VKKASdK9SFr2yvUQ9,129.08960467231154,35.268061378966664
471,더봄남도집,부산광역시 금정구 남산동 93-1번지,금정구,남산동,분식,,390031.323,198770.9051,,,,,,,,,,129.086305431576,35.27026570652844
472,어서와미스터,부산광역시 금정구 남산동 952-1번지,금정구,남산동,호프/통닭,051 583 9222,389605.4168,199367.7079,0.0,0,https://place.map.kakao.com/1554114588#review,4.73,11,https://m.place.naver.com/share?id=1487406309&tabsPath=%2Fhome&appMode=detail,,,,129.08176528535242,35.27572200806376
473,미진축산 남산점,부산광역시 금정구 남산동 96-1 거성리젠시,금정구,남산동,호프/통닭,51,390054.3309,198675.298,,,,4.08,33,https://m.place.naver.com/share?id=1759145485&tabsPath=%2Fhome&appMode=detail,,,,129.08653602744943,35.269400174615726
474,동촌칼국수,부산광역시 금정구 남산동 961-14번지,금정구,남산동,분식,,389631.5793,199030.4685,5.0,43,https://place.map.kakao.com/21338801#review,4.61,402,https://m.place.naver.com/share?id=16600142&tabsPath=%2Fhome&appMode=detail,4.5,리뷰 243개,https://goo.gl/maps/kAvfNYC8hNpp3bhF8,129.08197483966526,35.272679407411374
475,금샘다방,부산광역시 금정구 남산동 962-34,금정구,남산동,분식,051 581 9448,389668.1692,199131.2402,3.5,187,https://place.map.kakao.com/977032871#review,4.68,345,https://m.place.naver.com/share?id=1743575271&tabsPath=%2Fhome&appMode=detail,4.4,리뷰 106개,https://goo.gl/maps/X9aUiq9eW77gBWpH8,129.08239998207316,35.273580174575535
476,플레이,부산광역시 금정구 남산동 969-4번지,금정구,남산동,호프/통닭,051 515 6665,389687.473,198873.7512,0.0,0,https://place.map.kakao.com/14906304#review,,,,,,,129.0825525840898,35.27125721477756
477,토스트앤통닭,부산광역시 금정구 남산동 974-1,금정구,남산동,호프/통닭,051 853 6127,389820.9558,198811.222,0.0,0,https://place.map.kakao.com/1343345512#review,,,,,,,129.0840042335161,35.27066871847753
478,하루에,부산광역시 금정구 남산동 978-1번지,금정구,남산동,분식,,389824.4619,198638.862,4.1,54,https://place.map.kakao.com/463815986#review,,,,,,,129.08400294002735,35.26911553983974
